name,total_money_raised,offices_country_code,offices_state_code,offices_latitude,offices_longitude,offices_address_1,offices_address_2,offices_zip_code,vegan_rest,num_vegan_rest,preschool,num_preschool,starbucks,num_starbucks,clubs,num_clubs,weighted_punct
Netbiscuits,$27M,USA,NY,40.7467544,-73.9953227,7th Floor,275 Seventh Ave,10001,"[{'fsq_id': '5287e35711d2ab3ea77f7ebb', 'categories': [{'id': 13199, 'name': 'Indian Restaurant', 'icon': {'prefix': 'https://ss3.4sqi.net/img/categories_v2/food/indian_', 'suffix': '.png'}}, {'id': 13334, 'name': 'Sandwich Restaurant', 'icon': {'prefix': 'https://ss3.4sqi.net/img/categories_v2/food/deli_', 'suffix': '.png'}}, {'id': 13377, 'name': 'Vegan and Vegetarian Restaurant', 'icon': {'prefix': 'https://ss3.4sqi.net/img/categories_v2/food/vegetarian_', 'suffix': '.png'}}], 'chains': [], 'distance': 430, 'geocodes': {'main': {'latitude': 40.744946, 'longitude': -73.990249}, 'roof': {'latitude': 40.744946, 'longitude': -73.990249}}, 'link': '/v3/places/5287e35711d2ab3ea77f7ebb', 'location': {'address': '48 W 27th St', 'census_block': '360610058001002', 'country': 'US', 'cross_street': 'btwn Broadway & 6th Avenue', 'dma': 'New York', 'formatted_address': '48 W 27th St (btwn Broadway & 6th Avenue), New York, NY 10001', 'locality': 'New York', 'postcode': '10001', 'region': 'NY'}, 'name': 'Bombay Sandwich', 'related_places': {}, 'timezone': 'America/New_York'}, {'fsq_id': '53624ca7498e18140bb9e8b4', 'categories': [{'id': 13034, 'name': 'Café', 'icon': {'prefix': 'https://ss3.4sqi.net/img/categories_v2/food/cafe_', 'suffix': '.png'}}], 'chains': [], 'distance': 371, 'geocodes': {'drop_off': {'latitude': 40.743528, 'longitude': -73.994292}, 'main': {'latitude': 40.743323, 'longitude': -73.994378}, 'roof': {'latitude': 40.743323, 'longitude': -73.994378}}, 'link': '/v3/places/53624ca7498e18140bb9e8b4', 'location': {'address': '140 W 23rd St', 'census_block': '360610091004001', 'country': 'US', 'cross_street': '', 'dma': 'New York', 'formatted_address': '140 W 23rd St, New York, NY 10011', 'locality': 'New York', 'postcode': '10011', 'region': 'NY'}, 'name': 'Jack’s Stir Brew Coffee', 'related_places': {}, 'timezone': 'America/New_York'}, {'fsq_id': '58d3f1e7528930281485076b', 'categories': [{'id': 13035, 'name': 'Coffee Shop', 'icon': {'prefix': 'https://ss3.4sqi.net/img/categories_v2/food/coffeeshop_', 'suffix': '.png'}}, {'id': 13065, 'name': 'Restaurant', 'icon': {'prefix': 'https://ss3.4sqi.net/img/categories_v2/food/default_', 'suffix': '.png'}}], 'chains': [], 'distance': 180, 'geocodes': {'drop_off': {'latitude': 40.745314, 'longitude': -73.994759}, 'main': {'latitude': 40.745153, 'longitude': -73.994538}, 'roof': {'latitude': 40.745153, 'longitude': -73.994538}}, 'link': '/v3/places/58d3f1e7528930281485076b', 'location': {'address': '261 7th Ave', 'census_block': '360610091005001', 'country': 'US', 'cross_street': 'at W 25th St', 'dma': 'New York', 'formatted_address': '261 7th Ave (at W 25th St), New York, NY 10001', 'locality': 'New York', 'postcode': '10001', 'region': 'NY'}, 'name': 'Variety Coffee Roasters', 'related_places': {}, 'timezone': 'America/New_York'}, {'fsq_id': '49c406a8f964a5208d561fe3', 'categories': [{'id': 13001, 'name': 'Bagel Shop', 'icon': {'prefix': 'https://ss3.4sqi.net/img/categories_v2/food/bagels_', 'suffix': '.png'}}, {'id': 13068, 'name': 'American Restaurant', 'icon': {'prefix': 'https://ss3.4sqi.net/img/categories_v2/food/default_', 'suffix': '.png'}}, {'id': 13039, 'name': 'Deli', 'icon': {'prefix': 'https://ss3.4sqi.net/img/categories_v2/food/deli_', 'suffix': '.png'}}], 'chains': [], 'distance': 212, 'geocodes': {'main': {'latitude': 40.746151, 'longitude': -73.997547}, 'roof': {'latitude': 40.746151, 'longitude': -73.997547}}, 'link': '/v3/places/49c406a8f964a5208d561fe3', 'location': {'address': '286 8th Ave', 'address_extended': 'Frnt 1', 'census_block': '360610091001000', 'country': 'US', 'cross_street': 'btwn W 24th & W 25th St', 'dma': 'New York', 'formatted_address': '286 8th Ave (btwn W 24th & W 25th St), New York, NY 10001', 'locality': 'New York', 'postcode': '10001', 'region': 'NY'}, 'name': 'Brooklyn Bagel & Coffee Company', 'related_places': {}, 'timezone': 'America/New_York'}, {'fsq_id': '540def3a498ee75cf369e5a6', 'categories': [{'id': 13002, 'name': 'Bakery', 'icon': {'prefix': 'https://ss3.4sqi.net/img/categories_v2/food/bakery_', 'suffix': '.png'}}, {'id': 13035, 'name': 'Coffee Shop', 'icon': {'prefix': 'https://ss3.4sqi.net/img/categories_v2/food/coffeeshop_', 'suffix': '.png'}}, {'id': 13065, 'name': 'Restaurant', 'icon': {'prefix': 'https://ss3.4sqi.net/img/categories_v2/food/default_', 'suffix': '.png'}}], 'chains': [], 'distance': 134, 'geocodes': {'main': {'latitude': 40.745543, 'longitude': -73.994073}, 'roof': {'latitude': 40.745543, 'longitude': -73.994073}}, 'link': '/v3/places/540def3a498ee75cf369e5a6', 'location': {'address': '275 7th Ave', 'address_extended': 'Frnt 3', 'census_block': '360610091005000', 'country': 'US', 'cross_street': 'btwn W 25th & W 26th St', 'dma': 'New York', 'formatted_address': '275 7th Ave (btwn W 25th & W 26th St), New York, NY 10001', 'locality': 'New York', 'postcode': '10001', 'region': 'NY'}, 'name': 'Seven Grams Caffe', 'related_places': {}, 'timezone': 'America/New_York'}, {'fsq_id': '460d4b66f964a52005451fe3', 'categories': [{'id': 17069, 'name': 'Grocery Store / Supermarket', 'icon': {'prefix': 'https://ss3.4sqi.net/img/categories_v2/shops/food_grocery_', 'suffix': '.png'}}], 'chains': [{'id': 'c356152c-f98c-4c43-8a1e-1d16cc9ea1c8', 'name': 'Whole Foods'}], 'distance': 189, 'geocodes': {'main': {'latitude': 40.745134, 'longitude': -73.995236}, 'roof': {'latitude': 40.745134, 'longitude': -73.995236}}, 'link': '/v3/places/460d4b66f964a52005451fe3', 'location': {'address': '250 7th Ave', 'address_extended': 'Ste 511', 'census_block': '360610091001000', 'country': 'US', 'cross_street': 'at W 24th St', 'dma': 'New York', 'formatted_address': '250 7th Ave (at W 24th St), New York, NY 10001', 'locality': 'New York', 'postcode': '10001', 'region': 'NY'}, 'name': 'Whole Foods', 'related_places': {'children': [{'fsq_id': '5c88110ed69ed00039580e96', 'name': 'WFM Coffee Bar'}]}, 'timezone': 'America/New_York'}, {'fsq_id': '4a639f9ff964a52077c51fe3', 'categories': [{'id': 13064, 'name': 'Pizzeria', 'icon': {'prefix': 'https://ss3.4sqi.net/img/categories_v2/food/pizza_', 'suffix': '.png'}}], 'chains': [], 'distance': 375, 'geocodes': {'drop_off': {'latitude': 40.750094, 'longitude': -73.995135}, 'main': {'latitude': 40.750153, 'longitude': -73.995215}, 'roof': {'latitude': 40.750153, 'longitude': -73.995215}}, 'link': '/v3/places/4a639f9ff964a52077c51fe3', 'location': {'address': '413 8th Ave', 'address_extended': 'btwn W 30th  W 31st St', 'census_block': '360610103001012', 'country': 'US', 'cross_street': 'btwn W 30th & W 31st St', 'dma': 'New York', 'formatted_address': '413 8th Ave (btwn W 30th & W 31st St), New York, NY 10001', 'locality': 'New York', 'postcode': '10001', 'region': 'NY'}, 'name': 'NY Pizza Suprema', 'related_places': {'children': []}, 'timezone': 'America/New_York'}, {'fsq_id': '619125bafb41d06a30c7d26b', 'categories': [{'id': 13102, 'name': 'Cantonese Restaurant', 'icon': {'prefix': 'https://ss3.4sqi.net/img/categories_v2/food/asian_', 'suffix': '.png'}}, {'id': 13106, 'name': 'Dim Sum Restaurant', 'icon': {'prefix': 'https://ss3.4sqi.net/img/categories_v2/food/dimsum_', 'suffix': '.png'}}], 'chains': [], 'distance': 104, 'geocodes': {'drop_off': {'latitude': 40.746984, 'longitude': -73.996589}, 'main': {'latitude': 40.747204, 'longitude': -73.996497}, 'roof': {'latitude': 40.747204, 'longitude': -73.996497}}, 'link': '/v3/places/619125bafb41d06a30c7d26b', 'location': {'address': '251 W 26th St', 'census_block': '360610095002003', 'country': 'US', 'cross_street': 'between 7th Ave and 8th Ave', 'dma': 'New York', 'formatted_address': '251 W 26th St (between 7th Ave and 8th Ave), New York, NY 10001', 'locality': 'New York', 'postcode': '10001', 'region': 'NY'}, 'name': 'Hey Yuet', 'related_places': {}, 'timezone': 'America/New_York'}, {'fsq_id': '4f61235ce4b0d7325f17c638', 'categories': [{'id': 13002, 'name': 'Bakery', 'icon': {'prefix': 'https://ss3.4sqi.net/img/categories_v2/food/bakery_', 'suffix': '.png'}}, {'id': 13068, 'name': 'American Restaurant', 'icon': {'prefix': 'https://ss3.4sqi.net/img/categories_v2/food/default_', 'suffix': '.png'}}], 'chains': [], 'distance': 447, 'geocodes': {'main': {'latitude': 40.747313, 'longitude': -74.000432}, 'roof': {'latitude': 40.747313, 'longitude': -74.000432}}, 'link': '/v3/places/4f61235ce4b0d7325f17c638', 'location': {'address': '236 9th Ave', 'census_block': '360610093001001', 'country': 'US', 'cross_street': 'at 24th St', 'dma': 'New York', 'formatted_address': '236 9th Ave (at 24th St), New York, NY 10001', 'locality': 'New York', 'postcode': '10001', 'region': 'NY'}, 'name': 'Sullivan Street Bakery', 'related_places': {'children': []}, 'timezone': 'America/New_York'}, {'fsq_id': '49d991d9f964a5204a5e1fe3', 'categories': [{'id': 13276, 'name': 'Sushi Restaurant', 'icon': {'prefix': 'https://ss3.4sqi.net/img/categories_v2/food/sushi_', 'suffix': '.png'}}], 'chains': [], 'distance': 464, 'geocodes': {'main': {'latitude': 40.74262, 'longitude': -73.996447}, 'roof': {'latitude': 40.74262, 'longitude': -73.996447}}, 'link': '/v3/places/49d991d9f964a5204a5e1fe3', 'location': {'address': '185 7th Ave', 'address_extended': 'Manhattan', 'census_block': '360610087006001', 'country': 'US', 'cross_street': 'at W 21st St', 'dma': 'New York', 'formatted_address': '185 7th Ave (at W 21st St), New York, NY 10011', 'locality': 'New York', 'postcode': '10011', 'region': 'NY'}, 'name': 'Momoya', 'related_places': {}, 'timezone': 'America/New_York'}]",10,"[{'fsq_id': '4d370251e4b4a09380322936', 'categories': [{'id': 11026, 'name': 'Daycare', 'icon': {'prefix': 'https://ss3.4sqi.net/img/categories_v2/shops/daycare_', 'suffix': '.png'}}], 'chains': [], 'distance': 180, 'geocodes': {'drop_off': {'latitude': 40.745565, 'longitude': -73.997059}, 'main': {'latitude': 40.745789, 'longitude': -73.996965}, 'roof': {'latitude': 40.745789, 'longitude': -73.996965}}, 'link': '/v3/places/4d370251e4b4a09380322936', 'location': {'address': '247 W 24th St', 'census_block': '360610091001000', 'country': 'US', 'cross_street': 'at 8th Ave', 'dma': 'New York', 'formatted_address': '247 W 24th St (at 8th Ave), New York, NY 10011', 'locality': 'New York', 'postcode': '10011', 'region': 'NY'}, 'name': 'The Kids Korner', 'related_places': {}, 'timezone': 'America/New_York'}, {'fsq_id': '5723c1d2498e6bd67576403f', 'categories': [{'id': 11026, 'name': 'Daycare', 'icon': {'prefix': 'https://ss3.4sqi.net/img/categories_v2/shops/daycare_', 'suffix': '.png'}}], 'chains': [], 'distance': 131, 'geocodes': {'drop_off': {'latitude': 40.747023, 'longitude': -73.996683}, 'main': {'latitude': 40.746874, 'longitude': -73.996746}, 'roof': {'latitude': 40.746874, 'longitude': -73.996746}}, 'link': '/v3/places/5723c1d2498e6bd67576403f', 'location': {'address': '258 W 26th St', 'census_block': '360610091006000', 'country': 'US', 'cross_street': '', 'dma': 'New York', 'formatted_address': '258 W 26th St, New York, NY 10001', 'locality': 'New York', 'postcode': '10001', 'region': 'NY'}, 'name': 'Bright Horizons Family Solutions', 'related_places': {}, 'timezone': 'America/New_York'}, {'fsq_id': '51b9c94b498e1ba22095fe88', 'categories': [{'id': 12056, 'name': 'Preschool', 'icon': {'prefix': 'https://ss3.4sqi.net/img/categories_v2/building/school_', 'suffix': '.png'}}], 'chains': [], 'distance': 421, 'geocodes': {'drop_off': {'latitude': 40.745164, 'longitude': -73.991156}, 'main': {'latitude': 40.744982, 'longitude': -73.990906}, 'roof': {'latitude': 40.744982, 'longitude': -73.990906}}, 'link': '/v3/places/51b9c94b498e1ba22095fe88', 'location': {'address': '776 Avenue of the Americas', 'census_block': '360610058001002', 'country': 'US', 'cross_street': '27th st', 'dma': 'New York', 'formatted_address': '776 Avenue of the Americas (27th st), New York, NY 10001', 'locality': 'New York', 'postcode': '10001', 'region': 'NY'}, 'name': 'Ivy League Early Learning Academy', 'related_places': {}, 'timezone': 'America/New_York'}]",3,"[{'fsq_id': '506c7556e4b03bdbe5afda50', 'categories': [{'id': 13035, 'name': 'Coffee Shop', 'icon': {'prefix': 'https://ss3.4sqi.net/img/categories_v2/food/coffeeshop_', 'suffix': '.png'}}], 'chains': [{'id': 'ab4c54c0-d68a-012e-5619-003048cad9da', 'name': 'Starbucks'}], 'distance': 91, 'geocodes': {'drop_off': {'latitude': 40.747078, 'longitude': -73.994893}, 'main': {'latitude': 40.747304, 'longitude': -73.994797}, 'roof': {'latitude': 40.747304, 'longitude': -73.994797}}, 'link': '/v3/places/506c7556e4b03bdbe5afda50', 'location': {'address': '227 W 27th St', 'census_block': '360610095002002', 'country': 'US', 'cross_street': 'FIT Cafeteria', 'dma': 'New York', 'formatted_address': '227 W 27th St (FIT Cafeteria), New York, NY 10001', 'locality': 'New York', 'postcode': '10001', 'region': 'NY'}, 'name': 'Starbucks', 'related_places': {'parent': {'fsq_id': '4d920848608fa1cdf24da583', 'name': 'FIT Sustainability'}}, 'timezone': 'America/New_York'}, {'fsq_id': '55a555fd498e1727ae82a345', 'categories': [{'id': 13035, 'name': 'Coffee Shop', 'icon': {'prefix': 'https://ss3.4sqi.net/img/categories_v2/food/coffeeshop_', 'suffix': '.png'}}], 'chains': [{'id': 'ab4c54c0-d68a-012e-5619-003048cad9da', 'name': 'Starbucks'}], 'distance': 486, 'geocodes': {'main': {'latitude': 40.749124, 'longitude': -73.991375}, 'roof': {'latitude': 40.749124, 'longitude': -73.991375}}, 'link': '/v3/places/55a555fd498e1727ae82a345', 'location': {'address': '11 Penn Plz', 'address_extended': 'Frnt 1', 'census_block': '360610101001006', 'country': 'US', 'cross_street': 'btwn 6th & 7th Ave', 'dma': 'New York', 'formatted_address': '11 Penn Plz (btwn 6th & 7th Ave), New York, NY 10001', 'locality': 'New York', 'postcode': '10001', 'region': 'NY'}, 'name': 'Starbucks', 'related_places': {}, 'timezone': 'America/New_York'}, {'fsq_id': '4b5e5125f964a520488929e3', 'categories': [{'id': 13035, 'name': 'Coffee Shop', 'icon': {'prefix': 'https://ss3.4sqi.net/img/categories_v2/food/coffeeshop_', 'suffix': '.png'}}], 'chains': [{'id': 'ab4c54c0-d68a-012e-5619-003048cad9da', 'name': 'Starbucks'}], 'distance': 170, 'geocodes': {'main': {'latitude': 40.746916, 'longitude': -73.993209}, 'roof': {'latitude': 40.746916, 'longitude': -73.993209}}, 'link': '/v3/places/4b5e5125f964a520488929e3', 'location': {'address': '315 7th Ave', 'address_extended': 'Frnt 2', 'census_block': '360610095001002', 'country': 'US', 'cross_street': 'at W 28th St', 'dma': 'New York', 'formatted_address': '315 7th Ave (at W 28th St), New York, NY 10001', 'locality': 'New York', 'postcode': '10001', 'region': 'NY'}, 'name': 'Starbucks', 'related_places': {}, 'timezone': 'America/New_York'}, {'fsq_id': '4a85b1b3f964a520eefe1fe3', 'categories': [{'id': 13035, 'name': 'Coffee Shop', 'icon': {'prefix': 'https://ss3.4sqi.net/img/categories_v2/food/coffeeshop_', 'suffix': '.png'}}], 'chains': [{'id': 'ab4c54c0-d68a-012e-5619-003048cad9da', 'name': 'Starbucks'}], 'distance': 352, 'geocodes': {'main': {'latitude': 40.748985, 'longitude': -73.992505}, 'roof': {'latitude': 40.748985, 'longitude': -73.992505}}, 'link': '/v3/places/4a85b1b3f964a520eefe1fe3', 'location': {'address': '370 7th Ave', 'census_block': '360610101001004', 'country': 'US', 'cross_street': 'at W 31st St', 'dma': 'New York', 'formatted_address': '370 7th Ave (at W 31st St), New York, NY 10001', 'locality': 'New York', 'postcode': '10001', 'region': 'NY'}, 'name': 'Starbucks', 'related_places': {}, 'timezone': 'America/New_York'}, {'fsq_id': '4b33f294f964a5209e2225e3', 'categories': [{'id': 13035, 'name': 'Coffee Shop', 'icon': {'prefix': 'https://ss3.4sqi.net/img/categories_v2/food/coffeeshop_', 'suffix': '.png'}}], 'chains': [{'id': 'ab4c54c0-d68a-012e-5619-003048cad9da', 'name': 'Starbucks'}], 'distance': 341, 'geocodes': {'main': {'latitude': 40.745198, 'longitude': -73.998863}, 'roof': {'latitude': 40.745198, 'longitude': -73.998863}}, 'link': '/v3/places/4b33f294f964a5209e2225e3', 'location': {'address': '300 W 23rd St', 'address_extended': 'Frnt 1', 'census_block': '360610093002001', 'country': 'US', 'cross_street': 'at 8th Ave', 'dma': 'New York', 'formatted_address': '300 W 23rd St (at 8th Ave), New York, NY 10011', 'locality': 'New York', 'postcode': '10011', 'region': 'NY'}, 'name': 'Starbucks', 'related_places': {}, 'timezone': 'America/New_York'}, {'fsq_id': '4aabdb37f964a520775a20e3', 'categories': [{'id': 13035, 'name': 'Coffee Shop', 'icon': {'prefix': 'https://ss3.4sqi.net/img/categories_v2/food/coffeeshop_', 'suffix': '.png'}}], 'chains': [{'id': 'ab4c54c0-d68a-012e-5619-003048cad9da', 'name': 'Starbucks'}], 'distance': 449, 'geocodes': {'main': {'latitude': 40.743933, 'longitude': -73.991782}, 'roof': {'latitude': 40.743933, 'longitude': -73.991782}}, 'link': '/v3/places/4aabdb37f964a520775a20e3', 'location': {'address': '750 Avenue of the Americas', 'address_extended': 'Frnt 1', 'census_block': '360610058002002', 'country': 'US', 'cross_street': 'at W 24th St', 'dma': 'New York', 'formatted_address': '750 Avenue of the Americas (at W 24th St), New York, NY 10010', 'locality': 'New York', 'postcode': '10010', 'region': 'NY'}, 'name': 'Starbucks', 'related_places': {}, 'timezone': 'America/New_York'}, {'fsq_id': '4a8ae51ef964a520c10a20e3', 'categories': [{'id': 13035, 'name': 'Coffee Shop', 'icon': {'prefix': 'https://ss3.4sqi.net/img/categories_v2/food/coffeeshop_', 'suffix': '.png'}}], 'chains': [{'id': 'ab4c54c0-d68a-012e-5619-003048cad9da', 'name': 'Starbucks'}], 'distance': 411, 'geocodes': {'main': {'latitude': 40.744982, 'longitude': -73.990906}, 'roof': {'latitude': 40.744982, 'longitude': -73.990906}}, 'link': '/v3/places/4a8ae51ef964a520c10a20e3', 'location': {'address': '776 Avenue of the Americas', 'address_extended': 'Frnt 1', 'census_block': '360610058001002', 'country': 'US', 'cross_street': 'at W 27th St', 'dma': 'New York', 'formatted_address': '776 Avenue of the Americas (at W 27th St), New York, NY 10001', 'locality': 'New York', 'postcode': '10001', 'region': 'NY'}, 'name': 'Starbucks', 'related_places': {'parent': {'fsq_id': '526025a911d2d953079bcd99', 'name': 'The Capitol'}}, 'timezone': 'America/New_York'}, {'fsq_id': 'f20c6e4b8476867b5aef35ae', 'categories': [{'id': 13035, 'name': 'Coffee Shop', 'icon': {'prefix': 'https://ss3.4sqi.net/img/categories_v2/food/coffeeshop_', 'suffix': '.png'}}], 'chains': [{'id': 'ab4c54c0-d68a-012e-5619-003048cad9da', 'name': 'Starbucks'}], 'distance': 444, 'geocodes': {'main': {'latitude': 40.750372, 'longitude': -73.993083}, 'roof': {'latitude': 40.750372, 'longitude': -73.993083}}, 'link': '/v3/places/f20c6e4b8476867b5aef35ae', 'location': {'census_block': '360610101001003', 'country': 'US', 'dma': 'New York', 'formatted_address': 'New York, NY 10001', 'locality': 'New York', 'postcode': '10001', 'region': 'NY'}, 'name': 'Starbucks', 'related_places': {}}]",8,"[{'fsq_id': '60da36b2d61cae1ce8d45a04', 'categories': [{'id': 10032, 'name': 'Night Club', 'icon': {'prefix': 'https://ss3.4sqi.net/img/categories_v2/nightlife/nightclub_', 'suffix': '.png'}}, {'id': 13016, 'name': 'Lounge', 'icon': {'prefix': 'https://ss3.4sqi.net/img/categories_v2/nightlife/default_', 'suffix': '.png'}}], 'chains': [], 'distance': 348, 'geocodes': {'drop_off': {'latitude': 40.744533, 'longitude': -73.992695}, 'main': {'latitude': 40.744283, 'longitude': -73.9928}, 'roof': {'latitude': 40.744283, 'longitude': -73.9928}}, 'link': '/v3/places/60da36b2d61cae1ce8d45a04', 'location': {'address': '112 W 25th St', 'census_block': '360610091005001', 'country': 'US', 'cross_street': '', 'dma': 'New York', 'formatted_address': '112 W 25th St, New York, NY 10001', 'locality': 'New York', 'postcode': '10001', 'region': 'NY'}, 'name': 'Somewhere Nowhere NYC', 'related_places': {'parent': {'fsq_id': '5e40e172db05930007766e0f', 'name': 'Renaissance New York Chelsea Hotel'}}, 'timezone': 'America/New_York'}, {'fsq_id': '4cc0b629f82ebfb7b4af6f91', 'categories': [{'id': 10032, 'name': 'Night Club', 'icon': {'prefix': 'https://ss3.4sqi.net/img/categories_v2/nightlife/nightclub_', 'suffix': '.png'}}], 'chains': [], 'distance': 381, 'geocodes': {'drop_off': {'latitude': 40.750117, 'longitude': -73.994974}, 'main': {'latitude': 40.750002, 'longitude': -73.994816}, 'roof': {'latitude': 40.750002, 'longitude': -73.994816}}, 'link': '/v3/places/4cc0b629f82ebfb7b4af6f91', 'location': {'address': '412 8th Ave', 'census_block': '360610101001004', 'country': 'US', 'cross_street': 'between 30th & 31st St', 'dma': 'New York', 'formatted_address': '412 8th Ave (between 30th & 31st St), New York, NY 10001', 'locality': 'New York', 'postcode': '10001', 'region': 'NY'}, 'name': 'Frim Fram Jam', 'related_places': {}, 'timezone': 'America/New_York'}, {'fsq_id': '5a96e751d69ed035676ca89a', 'categories': [{'id': 10032, 'name': 'Night Club', 'icon': {'prefix': 'https://ss3.4sqi.net/img/categories_v2/nightlife/nightclub_', 'suffix': '.png'}}, {'id': 13065, 'name': 'Restaurant', 'icon': {'prefix': 'https://ss3.4sqi.net/img/categories_v2/food/default_', 'suffix': '.png'}}], 'chains': [], 'distance': 134, 'geocodes': {'drop_off': {'latitude': 40.747881, 'longitude': -73.994901}, 'main': {'latitude': 40.748059, 'longitude': -73.994827}, 'roof': {'latitude': 40.748059, 'longitude': -73.994827}}, 'link': '/v3/places/5a96e751d69ed035676ca89a', 'location': {'address': '229 W 28th St', 'census_block': '360610095002001', 'country': 'US', 'cross_street': 'Between 7th & 8th Ave', 'dma': 'New York', 'formatted_address': '229 W 28th St (Between 7th & 8th Ave), New York, NY 10001', 'locality': 'New York', 'postcode': '10001', 'region': 'NY'}, 'name': 'Mission Nightclub', 'related_places': {'children': []}, 'timezone': 'America/New_York'}, {'fsq_id': '5cde6c40f193c0002c56fb0f', 'categories': [{'id': 10032, 'name': 'Night Club', 'icon': {'prefix': 'https://ss3.4sqi.net/img/categories_v2/nightlife/nightclub_', 'suffix': '.png'}}, {'id': 13003, 'name': 'Bar', 'icon': {'prefix': 'https://ss3.4sqi.net/img/categories_v2/nightlife/pub_', 'suffix': '.png'}}], 'chains': [], 'distance': 124, 'geocodes': {'main': {'latitude': 40.748009, 'longitude': -73.994694}, 'roof': {'latitude': 40.748009, 'longitude': -73.994694}}, 'link': '/v3/places/5cde6c40f193c0002c56fb0f', 'location': {'address': '229 W 28th St', 'census_block': '360610095002001', 'country': 'US', 'cross_street': '', 'dma': 'New York', 'formatted_address': '229 W 28th St, New York, NY 10001', 'locality': 'New York', 'postcode': '10001', 'region': 'NY'}, 'name': 'Battle Hymn', 'related_places': {}, 'timezone': 'America/New_York'}, {'fsq_id': '59a23a6235d3fc19e556f2f8', 'categories': [{'id': 10032, 'name': 'Night Club', 'icon': {'prefix': 'https://ss3.4sqi.net/img/categories_v2/nightlife/nightclub_', 'suffix': '.png'}}], 'chains': [], 'distance': 313, 'geocodes': {'main': {'latitude': 40.744068, 'longitude': -73.994757}, 'roof': {'latitude': 40.744068, 'longitude': -73.994757}}, 'link': '/v3/places/59a23a6235d3fc19e556f2f8', 'location': {'address': '161 W 23rd St', 'census_block': '360610091004000', 'country': 'US', 'cross_street': '', 'dma': 'New York', 'formatted_address': '161 W 23rd St, New York, NY 10011', 'locality': 'New York', 'postcode': '10011', 'region': 'NY'}, 'name': 'Retroclubnyc Retroclubnyc', 'related_places': {}, 'timezone': 'America/New_York'}, {'fsq_id': '50e234e8e4b019f64f46d4b2', 'categories': [{'id': 10032, 'name': 'Night Club', 'icon': {'prefix': 'https://ss3.4sqi.net/img/categories_v2/nightlife/nightclub_', 'suffix': '.png'}}], 'chains': [], 'distance': 421, 'geocodes': {'drop_off': {'latitude': 40.74945, 'longitude': -73.999058}, 'main': {'latitude': 40.749299, 'longitude': -73.99885}, 'roof': {'latitude': 40.749299, 'longitude': -73.99885}}, 'link': '/v3/places/50e234e8e4b019f64f46d4b2', 'location': {'address': '296 9th Ave', 'census_block': '360610097001001', 'country': 'US', 'cross_street': '', 'dma': 'New York', 'formatted_address': '296 9th Ave, New York, NY 10001', 'locality': 'New York', 'postcode': '10001', 'region': 'NY'}, 'name': 'Holy Apostles Ballroom', 'related_places': {}, 'timezone': 'America/New_York'}, {'fsq_id': '9481c071e70f41c70089076c', 'categories': [{'id': 10032, 'name': 'Night Club', 'icon': {'prefix': 'https://ss3.4sqi.net/img/categories_v2/nightlife/nightclub_', 'suffix': '.png'}}], 'chains': [], 'distance': 169, 'geocodes': {'drop_off': {'latitude': 40.745692, 'longitude': -73.994487}, 'main': {'latitude': 40.745486, 'longitude': -73.994201}, 'roof': {'latitude': 40.745486, 'longitude': -73.994201}}, 'link': '/v3/places/9481c071e70f41c70089076c', 'location': {'address': '275 7th Ave', 'census_block': '360610091005000', 'country': 'US', 'dma': 'New York', 'formatted_address': '275 7th Ave, New York, NY 10001', 'locality': 'New York', 'postcode': '10001', 'region': 'NY'}, 'name': 'New York City Labor Chorus', 'related_places': {}}, {'fsq_id': '1df11d4fc3114823a1111fdf', 'categories': [{'id': 10032, 'name': 'Night Club', 'icon': {'prefix': 'https://ss3.4sqi.net/img/categories_v2/nightlife/nightclub_', 'suffix': '.png'}}, {'id': 13236, 'name': 'Italian Restaurant', 'icon': {'prefix': 'https://ss3.4sqi.net/img/categories_v2/food/italian_', 'suffix': '.png'}}], 'chains': [], 'distance': 299, 'geocodes': {'main': {'latitude': 40.74454, 'longitude': -73.993291}, 'roof': {'latitude': 40.74454, 'longitude': -73.993291}}, 'link': '/v3/places/1df11d4fc3114823a1111fdf', 'location': {'address': '130 W 25th St', 'address_extended': 'Fl 7', 'census_block': '360610091005001', 'country': 'US', 'dma': 'New York', 'formatted_address': '130 W 25th St, New York, NY 10001', 'locality': 'New York', 'postcode': '10001', 'region': 'NY'}, 'name': 'LDV Hospitality', 'related_places': {}}, {'fsq_id': '4bb32d0fb3144807050c9fcd', 'categories': [{'id': 10032, 'name': 'Night Club', 'icon': {'prefix': 'https://ss3.4sqi.net/img/categories_v2/nightlife/nightclub_', 'suffix': '.png'}}], 'chains': [], 'distance': 367, 'geocodes': {'drop_off': {'latitude': 40.743694, 'longitude': -73.994685}, 'main': {'latitude': 40.743474, 'longitude': -73.994777}, 'roof': {'latitude': 40.743474, 'longitude': -73.994777}}, 'link': '/v3/places/4bb32d0fb3144807050c9fcd', 'location': {'address': '148 W 23rd St', 'census_block': '360610091004001', 'country': 'US', 'dma': 'New York', 'formatted_address': '148 W 23rd St, New York, NY 10011', 'locality': 'New York', 'postcode': '10011', 'region': 'NY'}, 'name': 'Blue Light Floatation', 'related_places': {}}, {'fsq_id': '822528b3f9e148cf8d97b74a', 'categories': [{'id': 10032, 'name': 'Night Club', 'icon': {'prefix': 'https://ss3.4sqi.net/img/categories_v2/nightlife/nightclub_', 'suffix': '.png'}}], 'chains': [], 'distance': 390, 'geocodes': {'main': {'latitude': 40.750265, 'longitude': -73.995045}}, 'link': '/v3/places/822528b3f9e148cf8d97b74a', 'location': {'address': '421 8th Ave', 'census_block': '360610103001012', 'country': 'US', 'dma': 'New York', 'formatted_address': '421 8th Ave, New York, NY 10001', 'locality': 'New York', 'postcode': '10001', 'region': 'NY'}, 'name': 'New York City Strippers & Exotic Dancers', 'related_places': {}}]",10,804.0
Aviary,$19M,USA,NY,40.7493756,-73.9964352,243 West 30th Street,11th Floor,10001,"[{'fsq_id': '5f161e6f978e663e91ab7155', 'categories': [{'id': 13003, 'name': 'Bar', 'icon': {'prefix': 'https://ss3.4sqi.net/img/categories_v2/nightlife/pub_', 'suffix': '.png'}}, {'id': 13303, 'name': 'Mexican Restaurant', 'icon': {'prefix': 'https://ss3.4sqi.net/img/categories_v2/food/mexican_', 'suffix': '.png'}}], 'chains': [], 'distance': 433, 'geocodes': {'main': {'latitude': 40.752566, 'longitude': -73.999722}, 'roof': {'latitude': 40.752566, 'longitude': -73.999722}}, 'link': '/v3/places/5f161e6f978e663e91ab7155', 'location': {'address': '450 W 33rd St', 'census_block': '360610103001003', 'country': 'US', 'cross_street': '', 'dma': 'New York', 'formatted_address': '450 W 33rd St, New York, NY 10001', 'locality': 'New York', 'postcode': '10001', 'region': 'NY'}, 'name': 'Jajaja Plantas Mexicana', 'related_places': {'parent': {'fsq_id': '5f0f9256e0ccd447d4424216', 'name': 'Whole Foods'}}, 'timezone': 'America/New_York'}, {'fsq_id': '4a639f9ff964a52077c51fe3', 'categories': [{'id': 13064, 'name': 'Pizzeria', 'icon': {'prefix': 'https://ss3.4sqi.net/img/categories_v2/food/pizza_', 'suffix': '.png'}}], 'chains': [], 'distance': 147, 'geocodes': {'drop_off': {'latitude': 40.750094, 'longitude': -73.995135}, 'main': {'latitude': 40.750153, 'longitude': -73.995215}, 'roof': {'latitude': 40.750153, 'longitude': -73.995215}}, 'link': '/v3/places/4a639f9ff964a52077c51fe3', 'location': {'address': '413 8th Ave', 'address_extended': 'btwn W 30th  W 31st St', 'census_block': '360610103001012', 'country': 'US', 'cross_street': 'btwn W 30th & W 31st St', 'dma': 'New York', 'formatted_address': '413 8th Ave (btwn W 30th & W 31st St), New York, NY 10001', 'locality': 'New York', 'postcode': '10001', 'region': 'NY'}, 'name': 'NY Pizza Suprema', 'related_places': {'children': []}, 'timezone': 'America/New_York'}, {'fsq_id': '49c406a8f964a5208d561fe3', 'categories': [{'id': 13001, 'name': 'Bagel Shop', 'icon': {'prefix': 'https://ss3.4sqi.net/img/categories_v2/food/bagels_', 'suffix': '.png'}}, {'id': 13068, 'name': 'American Restaurant', 'icon': {'prefix': 'https://ss3.4sqi.net/img/categories_v2/food/default_', 'suffix': '.png'}}, {'id': 13039, 'name': 'Deli', 'icon': {'prefix': 'https://ss3.4sqi.net/img/categories_v2/food/deli_', 'suffix': '.png'}}], 'chains': [], 'distance': 377, 'geocodes': {'main': {'latitude': 40.746151, 'longitude': -73.997547}, 'roof': {'latitude': 40.746151, 'longitude': -73.997547}}, 'link': '/v3/places/49c406a8f964a5208d561fe3', 'location': {'address': '286 8th Ave', 'address_extended': 'Frnt 1', 'census_block': '360610091001000', 'country': 'US', 'cross_street': 'btwn W 24th & W 25th St', 'dma': 'New York', 'formatted_address': '286 8th Ave (btwn W 24th & W 25th St), New York, NY 10001', 'locality': 'New York', 'postcode': '10001', 'region': 'NY'}, 'name': 'Brooklyn Bagel & Coffee Company', 'related_places': {}, 'timezone': 'America/New_York'}, {'fsq_id': '59ca57dd3d47910ad148e668', 'categories': [{'id': 13032, 'name': 'Cafes, Coffee, and Tea Houses', 'icon': {'prefix': 'https://ss3.4sqi.net/img/categories_v2/food/default_', 'suffix': '.png'}}], 'chains': [], 'distance': 361, 'geocodes': {'main': {'latitude': 40.752209, 'longitude': -73.998965}, 'roof': {'latitude': 40.752209, 'longitude': -73.998965}}, 'link': '/v3/places/59ca57dd3d47910ad148e668', 'location': {'address': '435 W 31st St', 'census_block': '360610103001009', 'country': 'US', 'cross_street': 'btwn 9th & Dyer Ave', 'dma': 'New York', 'formatted_address': '435 W 31st St (btwn 9th & Dyer Ave), New York, NY 10001', 'locality': 'New York', 'postcode': '10001', 'region': 'NY'}, 'name': 'Bluestone Lane Manhattan West Café', 'related_places': {'parent': {'fsq_id': '58c46579110d0304a1ae28ba', 'name': 'The Eugene Apartments'}}, 'timezone': 'America/New_York'}, {'fsq_id': '4f61235ce4b0d7325f17c638', 'categories': [{'id': 13002, 'name': 'Bakery', 'icon': {'prefix': 'https://ss3.4sqi.net/img/categories_v2/food/bakery_', 'suffix': '.png'}}, {'id': 13068, 'name': 'American Restaurant', 'icon': {'prefix': 'https://ss3.4sqi.net/img/categories_v2/food/default_', 'suffix': '.png'}}], 'chains': [], 'distance': 416, 'geocodes': {'main': {'latitude': 40.747313, 'longitude': -74.000432}, 'roof': {'latitude': 40.747313, 'longitude': -74.000432}}, 'link': '/v3/places/4f61235ce4b0d7325f17c638', 'location': {'address': '236 9th Ave', 'census_block': '360610093001001', 'country': 'US', 'cross_street': 'at 24th St', 'dma': 'New York', 'formatted_address': '236 9th Ave (at 24th St), New York, NY 10001', 'locality': 'New York', 'postcode': '10001', 'region': 'NY'}, 'name': 'Sullivan Street Bakery', 'related_places': {'children': []}, 'timezone': 'America/New_York'}, {'fsq_id': '6195afec8a1d954d76c8e668', 'categories': [{'id': 13009, 'name': 'Cocktail Bar', 'icon': {'prefix': 'https://ss3.4sqi.net/img/categories_v2/nightlife/cocktails_', 'suffix': '.png'}}, {'id': 13302, 'name': 'Mediterranean Restaurant', 'icon': {'prefix': 'https://ss3.4sqi.net/img/categories_v2/food/mediterranean_', 'suffix': '.png'}}], 'chains': [], 'distance': 428, 'geocodes': {'main': {'latitude': 40.752873, 'longitude': -73.99838}, 'roof': {'latitude': 40.752873, 'longitude': -73.99838}}, 'link': '/v3/places/6195afec8a1d954d76c8e668', 'location': {'address': '385 9th Ave', 'address_extended': 'Ste 85', 'census_block': '360610103001008', 'country': 'US', 'cross_street': '31st St', 'dma': 'New York', 'formatted_address': '385 9th Ave (31st St), New York, NY 10001', 'locality': 'New York', 'postcode': '10001', 'region': 'NY'}, 'name': ""Zou Zou's"", 'related_places': {'parent': {'fsq_id': '613cf4bf07e7540226d7125a', 'name': 'Pendry'}, 'children': []}, 'timezone': 'America/New_York'}, {'fsq_id': '58d3f1e7528930281485076b', 'categories': [{'id': 13035, 'name': 'Coffee Shop', 'icon': {'prefix': 'https://ss3.4sqi.net/img/categories_v2/food/coffeeshop_', 'suffix': '.png'}}, {'id': 13065, 'name': 'Restaurant', 'icon': {'prefix': 'https://ss3.4sqi.net/img/categories_v2/food/default_', 'suffix': '.png'}}], 'chains': [], 'distance': 486, 'geocodes': {'drop_off': {'latitude': 40.745314, 'longitude': -73.994759}, 'main': {'latitude': 40.745153, 'longitude': -73.994538}, 'roof': {'latitude': 40.745153, 'longitude': -73.994538}}, 'link': '/v3/places/58d3f1e7528930281485076b', 'location': {'address': '261 7th Ave', 'census_block': '360610091005001', 'country': 'US', 'cross_street': 'at W 25th St', 'dma': 'New York', 'formatted_address': '261 7th Ave (at W 25th St), New York, NY 10001', 'locality': 'New York', 'postcode': '10001', 'region': 'NY'}, 'name': 'Variety Coffee Roasters', 'related_places': {}, 'timezone': 'America/New_York'}, {'fsq_id': '580e02c538fac6ce83d3b8c9', 'categories': [{'id': 13034, 'name': 'Café', 'icon': {'prefix': 'https://ss3.4sqi.net/img/categories_v2/food/cafe_', 'suffix': '.png'}}, {'id': 13035, 'name': 'Coffee Shop', 'icon': {'prefix': 'https://ss3.4sqi.net/img/categories_v2/food/coffeeshop_', 'suffix': '.png'}}, {'id': 13073, 'name': 'Australian Restaurant', 'icon': {'prefix': 'https://ss3.4sqi.net/img/categories_v2/food/australian_', 'suffix': '.png'}}], 'chains': [], 'distance': 375, 'geocodes': {'drop_off': {'latitude': 40.747864, 'longitude': -74.000635}, 'main': {'latitude': 40.748065, 'longitude': -74.000549}, 'roof': {'latitude': 40.748065, 'longitude': -74.000549}}, 'link': '/v3/places/580e02c538fac6ce83d3b8c9', 'location': {'address': '401 W 25th St', 'census_block': '360610093006000', 'country': 'US', 'cross_street': '9th Ave', 'dma': 'New York', 'formatted_address': '401 W 25th St (9th Ave), New York, NY 10001', 'locality': 'New York', 'postcode': '10001', 'region': 'NY'}, 'name': 'Citizens of Chelsea', 'related_places': {}, 'timezone': 'America/New_York'}, {'fsq_id': '619125bafb41d06a30c7d26b', 'categories': [{'id': 13102, 'name': 'Cantonese Restaurant', 'icon': {'prefix': 'https://ss3.4sqi.net/img/categories_v2/food/asian_', 'suffix': '.png'}}, {'id': 13106, 'name': 'Dim Sum Restaurant', 'icon': {'prefix': 'https://ss3.4sqi.net/img/categories_v2/food/dimsum_', 'suffix': '.png'}}], 'chains': [], 'distance': 247, 'geocodes': {'drop_off': {'latitude': 40.746984, 'longitude': -73.996589}, 'main': {'latitude': 40.747204, 'longitude': -73.996497}, 'roof': {'latitude': 40.747204, 'longitude': -73.996497}}, 'link': '/v3/places/619125bafb41d06a30c7d26b', 'location': {'address': '251 W 26th St', 'census_block': '360610095002003', 'country': 'US', 'cross_street': 'between 7th Ave and 8th Ave', 'dma': 'New York', 'formatted_address': '251 W 26th St (between 7th Ave and 8th Ave), New York, NY 10001', 'locality': 'New York', 'postcode': '10001', 'region': 'NY'}, 'name': 'Hey Yuet', 'related_places': {}, 'timezone': 'America/New_York'}, {'fsq_id': '540def3a498ee75cf369e5a6', 'categories': [{'id': 13002, 'name': 'Bakery', 'icon': {'prefix': 'https://ss3.4sqi.net/img/categories_v2/food/bakery_', 'suffix': '.png'}}, {'id': 13035, 'name': 'Coffee Shop', 'icon': {'prefix': 'https://ss3.4sqi.net/img/categories_v2/food/coffeeshop_', 'suffix': '.png'}}, {'id': 13065, 'name': 'Restaurant', 'icon': {'prefix': 'https://ss3.4sqi.net/img/categories_v2/food/default_', 'suffix': '.png'}}], 'chains': [], 'distance': 437, 'geocodes': {'main': {'latitude': 40.745543, 'longitude': -73.994073}, 'roof': {'latitude': 40.745543, 'longitude': -73.994073}}, 'link': '/v3/places/540def3a498ee75cf369e5a6', 'location': {'address': '275 7th Ave', 'address_extended': 'Frnt 3', 'census_block': '360610091005000', 'country': 'US', 'cross_street': 'btwn W 25th & W 26th St', 'dma': 'New York', 'formatted_address': '275 7th Ave (btwn W 25th & W 26th St), New York, NY 10001', 'locality': 'New York', 'postcode': '10001', 'region': 'NY'}, 'name': 'Seven Grams Caffe', 'related_places': {}, 'timezone': 'America/New_York'}]",10,"[{'fsq_id': '4d370251e4b4a09380322936', 'categories': [{'id': 11026, 'name': 'Daycare', 'icon': {'prefix': 'https://ss3.4sqi.net/img/categories_v2/shops/daycare_', 'suffix': '.png'}}], 'chains': [], 'distance': 412, 'geocodes': {'drop_off': {'latitude': 40.745565, 'longitude': -73.997059}, 'main': {'latitude': 40.745789, 'longitude': -73.996965}, 'roof': {'latitude': 40.745789, 'longitude': -73.996965}}, 'link': '/v3/places/4d370251e4b4a09380322936', 'location': {'address': '247 W 24th St', 'census_block': '360610091001000', 'country': 'US', 'cross_street': 'at 8th Ave', 'dma': 'New York', 'formatted_address': '247 W 24th St (at 8th Ave), New York, NY 10011', 'locality': 'New York', 'postcode': '10011', 'region': 'NY'}, 'name': 'The Kids Korner', 'related_places': {}, 'timezone': 'America/New_York'}, {'fsq_id': '5723c1d2498e6bd67576403f', 'categories': [{'id': 11026, 'name': 'Daycare', 'icon': {'prefix': 'https://ss3.4sqi.net/img/categories_v2/shops/daycare_', 'suffix': '.png'}}], 'chains': [], 'distance': 274, 'geocodes': {'drop_off': {'latitude': 40.747023, 'longitude': -73.996683}, 'main': {'latitude': 40.746874, 'longitude': -73.996746}, 'roof': {'latitude': 40.746874, 'longitude': -73.996746}}, 'link': '/v3/places/5723c1d2498e6bd67576403f', 'location': {'address': '258 W 26th St', 'census_block': '360610091006000', 'country': 'US', 'cross_street': '', 'dma': 'New York', 'formatted_address': '258 W 26th St, New York, NY 10001', 'locality': 'New York', 'postcode': '10001', 'region': 'NY'}, 'name': 'Bright Horizons Family Solutions', 'related_places': {}, 'timezone': 'America/New_York'}]",2,"[{'fsq_id': '55a555fd498e1727ae82a345', 'categories': [{'id': 13035, 'name': 'Coffee Shop', 'icon': {'prefix': 'https://ss3.4sqi.net/img/categories_v2/food/coffeeshop_', 'suffix': '.png'}}], 'chains': [{'id': 'ab4c54c0-d68a-012e-5619-003048cad9da', 'name': 'Starbucks'}], 'distance': 513, 'geocodes': {'main': {'latitude': 40.749124, 'longitude': -73.991375}, 'roof': {'latitude': 40.749124, 'longitude': -73.991375}}, 'link': '/v3/places/55a555fd498e1727ae82a345', 'location': {'address': '11 Penn Plz', 'address_extended': 'Frnt 1', 'census_block': '360610101001006', 'country': 'US', 'cross_street': 'btwn 6th & 7th Ave', 'dma': 'New York', 'formatted_address': '11 Penn Plz (btwn 6th & 7th Ave), New York, NY 10001', 'locality': 'New York', 'postcode': '10001', 'region': 'NY'}, 'name': 'Starbucks', 'related_places': {}, 'timezone': 'America/New_York'}, {'fsq_id': '506c7556e4b03bdbe5afda50', 'categories': [{'id': 13035, 'name': 'Coffee Shop', 'icon': {'prefix': 'https://ss3.4sqi.net/img/categories_v2/food/coffeeshop_', 'suffix': '.png'}}], 'chains': [{'id': 'ab4c54c0-d68a-012e-5619-003048cad9da', 'name': 'Starbucks'}], 'distance': 214, 'geocodes': {'drop_off': {'latitude': 40.747078, 'longitude': -73.994893}, 'main': {'latitude': 40.747304, 'longitude': -73.994797}, 'roof': {'latitude': 40.747304, 'longitude': -73.994797}}, 'link': '/v3/places/506c7556e4b03bdbe5afda50', 'location': {'address': '227 W 27th St', 'census_block': '360610095002002', 'country': 'US', 'cross_street': 'FIT Cafeteria', 'dma': 'New York', 'formatted_address': '227 W 27th St (FIT Cafeteria), New York, NY 10001', 'locality': 'New York', 'postcode': '10001', 'region': 'NY'}, 'name': 'Starbucks', 'related_places': {'parent': {'fsq_id': '4d920848608fa1cdf24da583', 'name': 'FIT Sustainability'}}, 'timezone': 'America/New_York'}, {'fsq_id': '4b5e5125f964a520488929e3', 'categories': [{'id': 13035, 'name': 'Coffee Shop', 'icon': {'prefix': 'https://ss3.4sqi.net/img/categories_v2/food/coffeeshop_', 'suffix': '.png'}}], 'chains': [{'id': 'ab4c54c0-d68a-012e-5619-003048cad9da', 'name': 'Starbucks'}], 'distance': 373, 'geocodes': {'main': {'latitude': 40.746916, 'longitude': -73.993209}, 'roof': {'latitude': 40.746916, 'longitude': -73.993209}}, 'link': '/v3/places/4b5e5125f964a520488929e3', 'location': {'address': '315 7th Ave', 'address_extended': 'Frnt 2', 'census_block': '360610095001002', 'country': 'US', 'cross_street': 'at W 28th St', 'dma': 'New York', 'formatted_address': '315 7th Ave (at W 28th St), New York, NY 10001', 'locality': 'New York', 'postcode': '10001', 'region': 'NY'}, 'name': 'Starbucks', 'related_places': {}, 'timezone': 'America/New_York'}, {'fsq_id': '4a85b1b3f964a520eefe1fe3', 'categories': [{'id': 13035, 'name': 'Coffee Shop', 'icon': {'prefix': 'https://ss3.4sqi.net/img/categories_v2/food/coffeeshop_', 'suffix': '.png'}}], 'chains': [{'id': 'ab4c54c0-d68a-012e-5619-003048cad9da', 'name': 'Starbucks'}], 'distance': 349, 'geocodes': {'main': {'latitude': 40.748985, 'longitude': -73.992505}, 'roof': {'latitude': 40.748985, 'longitude': -73.992505}}, 'link': '/v3/places/4a85b1b3f964a520eefe1fe3', 'location': {'address': '370 7th Ave', 'census_block': '360610101001004', 'country': 'US', 'cross_street': 'at W 31st St', 'dma': 'New York', 'formatted_address': '370 7th Ave (at W 31st St), New York, NY 10001', 'locality': 'New York', 'postcode': '10001', 'region': 'NY'}, 'name': 'Starbucks', 'related_places': {}, 'timezone': 'America/New_York'}, {'fsq_id': '5d0cd963c626c60024381478', 'categories': [{'id': 13035, 'name': 'Coffee Shop', 'icon': {'prefix': 'https://ss3.4sqi.net/img/categories_v2/food/coffeeshop_', 'suffix': '.png'}}], 'chains': [{'id': 'ab4c54c0-d68a-012e-5619-003048cad9da', 'name': 'Starbucks'}], 'distance': 416, 'geocodes': {'main': {'latitude': 40.75263, 'longitude': -73.9954}, 'roof': {'latitude': 40.75263, 'longitude': -73.9954}}, 'link': '/v3/places/5d0cd963c626c60024381478', 'location': {'address': '330 W 34th St', 'census_block': '360610103002000', 'country': 'US', 'cross_street': '', 'dma': 'New York', 'formatted_address': '330 W 34th St, New York, NY 10001', 'locality': 'New York', 'postcode': '10001', 'region': 'NY'}, 'name': 'Starbucks', 'related_places': {}, 'timezone': 'America/New_York'}, {'fsq_id': '4ab26682f964a520106b20e3', 'categories': [{'id': 13035, 'name': 'Coffee Shop', 'icon': {'prefix': 'https://ss3.4sqi.net/img/categories_v2/food/coffeeshop_', 'suffix': '.png'}}], 'chains': [{'id': 'ab4c54c0-d68a-012e-5619-003048cad9da', 'name': 'Starbucks'}], 'distance': 468, 'geocodes': {'main': {'latitude': 40.752698, 'longitude': -73.992869}, 'roof': {'latitude': 40.752698, 'longitude': -73.992869}}, 'link': '/v3/places/4ab26682f964a520106b20e3', 'location': {'address': '494 8th Ave', 'address_extended': 'Frnt 3', 'census_block': '360610109001005', 'country': 'US', 'cross_street': 'at W 35th St', 'dma': 'New York', 'formatted_address': '494 8th Ave (at W 35th St), New York, NY 10001', 'locality': 'New York', 'postcode': '10001', 'region': 'NY'}, 'name': 'Starbucks', 'related_places': {}, 'timezone': 'America/New_York'}, {'fsq_id': '4b040c7df964a5201d5122e3', 'categories': [{'id': 13035, 'name': 'Coffee Shop', 'icon': {'prefix': 'https://ss3.4sqi.net/img/categories_v2/food/coffeeshop_', 'suffix': '.png'}}], 'chains': [{'id': 'ab4c54c0-d68a-012e-5619-003048cad9da', 'name': 'Starbucks'}], 'distance': 542, 'geocodes': {'main': {'latitude': 40.753455, 'longitude': -73.998796}, 'roof': {'latitude': 40.753455, 'longitude': -73.998796}}, 'link': '/v3/places/4b040c7df964a5201d5122e3', 'location': {'address': '450 W 33rd St', 'address_extended': 'Fl 2', 'census_block': '360610103001003', 'country': 'US', 'cross_street': 'at 10th Ave', 'dma': 'New York', 'formatted_address': '450 W 33rd St (at 10th Ave), New York, NY 10001', 'locality': 'New York', 'postcode': '10001', 'region': 'NY'}, 'name': 'Starbucks', 'related_places': {}, 'timezone': 'America/New_York'}, {'fsq_id': '62e5293a0dd547639e25ddc4', 'categories': [{'id': 13035, 'name': 'Coffee Shop', 'icon': {'prefix': 'https://ss3.4sqi.net/img/categories_v2/food/coffeeshop_', 'suffix': '.png'}}], 'chains': [{'id': 'ab4c54c0-d68a-012e-5619-003048cad9da', 'name': 'Starbucks'}], 'distance': 408, 'geocodes': {'drop_off': {'latitude': 40.751921, 'longitude': -73.998714}, 'main': {'latitude': 40.751783, 'longitude': -73.998774}, 'roof': {'latitude': 40.751783, 'longitude': -73.998774}}, 'link': '/v3/places/62e5293a0dd547639e25ddc4', 'location': {'address': '435 W 31st St', 'census_block': '360610103001010', 'country': 'US', 'cross_street': '', 'dma': 'New York', 'formatted_address': '435 W 31st St, New York, NY 10001', 'locality': 'New York', 'postcode': '10001', 'region': 'NY'}, 'name': 'Starbucks', 'related_places': {}, 'timezone': 'America/New_York'}, {'fsq_id': 'f20c6e4b8476867b5aef35ae', 'categories': [{'id': 13035, 'name': 'Coffee Shop', 'icon': {'prefix': 'https://ss3.4sqi.net/img/categories_v2/food/coffeeshop_', 'suffix': '.png'}}], 'chains': [{'id': 'ab4c54c0-d68a-012e-5619-003048cad9da', 'name': 'Starbucks'}], 'distance': 303, 'geocodes': {'main': {'latitude': 40.750372, 'longitude': -73.993083}, 'roof': {'latitude': 40.750372, 'longitude': -73.993083}}, 'link': '/v3/places/f20c6e4b8476867b5aef35ae', 'location': {'census_block': '360610101001003', 'country': 'US', 'dma': 'New York', 'formatted_address': 'New York, NY 10001', 'locality': 'New York', 'postcode': '10001', 'region': 'NY'}, 'name': 'Starbucks', 'related_places': {}}, {'fsq_id': 'c1b31e8f86934494bb31d68f', 'categories': [{'id': 13035, 'name': 'Coffee Shop', 'icon': {'prefix': 'https://ss3.4sqi.net/img/categories_v2/food/coffeeshop_', 'suffix': '.png'}}], 'chains': [{'id': 'ab4c54c0-d68a-012e-5619-003048cad9da', 'name': 'Starbucks'}], 'distance': 380, 'geocodes': {'main': {'latitude': 40.752209, 'longitude': -73.998965}, 'roof': {'latitude': 40.752209, 'longitude': -73.998965}}, 'link': '/v3/places/c1b31e8f86934494bb31d68f', 'location': {'address': '383 W 31st St', 'address_extended': 'Ste 48', 'census_block': '360610103001009', 'country': 'US', 'dma': 'New York', 'formatted_address': '383 W 31st St, New York, NY 10001', 'locality': 'New York', 'postcode': '10001', 'region': 'NY'}, 'name': 'Starbucks', 'related_places': {}}]",10,"[{'fsq_id': '4cc0b629f82ebfb7b4af6f91', 'categories': [{'id': 10032, 'name': 'Night Club', 'icon': {'prefix': 'https://ss3.4sqi.net/img/categories_v2/nightlife/nightclub_', 'suffix': '.png'}}], 'chains': [], 'distance': 152, 'geocodes': {'drop_off': {'latitude': 40.750117, 'longitude': -73.994974}, 'main': {'latitude': 40.750002, 'longitude': -73.994816}, 'roof': {'latitude': 40.750002, 'longitude': -73.994816}}, 'link': '/v3/places/4cc0b629f82ebfb7b4af6f91', 'location': {'address': '412 8th Ave', 'census_block': '360610101001004', 'country': 'US', 'cross_street': 'between 30th & 31st St', 'dma': 'New York', 'formatted_address': '412 8th Ave (between 30th & 31st St), New York, NY 10001', 'locality': 'New York', 'postcode': '10001', 'region': 'NY'}, 'name': 'Frim Fram Jam', 'related_places': {}, 'timezone': 'America/New_York'}, {'fsq_id': '5a96e751d69ed035676ca89a', 'categories': [{'id': 10032, 'name': 'Night Club', 'icon': {'prefix': 'https://ss3.4sqi.net/img/categories_v2/nightlife/nightclub_', 'suffix': '.png'}}, {'id': 13065, 'name': 'Restaurant', 'icon': {'prefix': 'https://ss3.4sqi.net/img/categories_v2/food/default_', 'suffix': '.png'}}], 'chains': [], 'distance': 202, 'geocodes': {'drop_off': {'latitude': 40.747881, 'longitude': -73.994901}, 'main': {'latitude': 40.748059, 'longitude': -73.994827}, 'roof': {'latitude': 40.748059, 'longitude': -73.994827}}, 'link': '/v3/places/5a96e751d69ed035676ca89a', 'location': {'address': '229 W 28th St', 'census_block': '360610095002001', 'country': 'US', 'cross_street': 'Between 7th & 8th Ave', 'dma': 'New York', 'formatted_address': '229 W 28th St (Between 7th & 8th Ave), New York, NY 10001', 'locality': 'New York', 'postcode': '10001', 'region': 'NY'}, 'name': 'Mission Nightclub', 'related_places': {'children': []}, 'timezone': 'America/New_York'}, {'fsq_id': '50e234e8e4b019f64f46d4b2', 'categories': [{'id': 10032, 'name': 'Night Club', 'icon': {'prefix': 'https://ss3.4sqi.net/img/categories_v2/nightlife/nightclub_', 'suffix': '.png'}}], 'chains': [], 'distance': 213, 'geocodes': {'drop_off': {'latitude': 40.74945, 'longitude': -73.999058}, 'main': {'latitude': 40.749299, 'longitude': -73.99885}, 'roof': {'latitude': 40.749299, 'longitude': -73.99885}}, 'link': '/v3/places/50e234e8e4b019f64f46d4b2', 'location': {'address': '296 9th Ave', 'census_block': '360610097001001', 'country': 'US', 'cross_street': '', 'dma': 'New York', 'formatted_address': '296 9th Ave, New York, NY 10001', 'locality': 'New York', 'postcode': '10001', 'region': 'NY'}, 'name': 'Holy Apostles Ballroom', 'related_places': {}, 'timezone': 'America/New_York'}, {'fsq_id': '5cde6c40f193c0002c56fb0f', 'categories': [{'id': 10032, 'name': 'Night Club', 'icon': {'prefix': 'https://ss3.4sqi.net/img/categories_v2/nightlife/nightclub_', 'suffix': '.png'}}, {'id': 13003, 'name': 'Bar', 'icon': {'prefix': 'https://ss3.4sqi.net/img/categories_v2/nightlife/pub_', 'suffix': '.png'}}], 'chains': [], 'distance': 265, 'geocodes': {'main': {'latitude': 40.748009, 'longitude': -73.994694}, 'roof': {'latitude': 40.748009, 'longitude': -73.994694}}, 'link': '/v3/places/5cde6c40f193c0002c56fb0f', 'location': {'address': '229 W 28th St', 'census_block': '360610095002001', 'country': 'US', 'cross_street': '', 'dma': 'New York', 'formatted_address': '229 W 28th St, New York, NY 10001', 'locality': 'New York', 'postcode': '10001', 'region': 'NY'}, 'name': 'Battle Hymn', 'related_places': {}, 'timezone': 'America/New_York'}, {'fsq_id': '822528b3f9e148cf8d97b74a', 'categories': [{'id': 10032, 'name': 'Night Club', 'icon': {'prefix': 'https://ss3.4sqi.net/img/categories_v2/nightlife/nightclub_', 'suffix': '.png'}}], 'chains': [], 'distance': 153, 'geocodes': {'main': {'latitude': 40.750265, 'longitude': -73.995045}}, 'link': '/v3/places/822528b3f9e148cf8d97b74a', 'location': {'address': '421 8th Ave', 'census_block': '360610103001012', 'country': 'US', 'dma': 'New York', 'formatted_address': '421 8th Ave, New York, NY 10001', 'locality': 'New York', 'postcode': '10001', 'region': 'NY'}, 'name': 'New York City Strippers & Exotic Dancers', 'related_places': {}}, {'fsq_id': '9481c071e70f41c70089076c', 'categories': [{'id': 10032, 'name': 'Night Club', 'icon': {'prefix': 'https://ss3.4sqi.net/img/categories_v2/nightlife/nightclub_', 'suffix': '.png'}}], 'chains': [], 'distance': 471, 'geocodes': {'drop_off': {'latitude': 40.745692, 'longitude': -73.994487}, 'main': {'latitude': 40.745486, 'longitude': -73.994201}, 'roof': {'latitude': 40.745486, 'longitude': -73.994201}}, 'link': '/v3/places/9481c071e70f41c70089076c', 'location': {'address': '275 7th Ave', 'census_block': '360610091005000', 'country': 'US', 'dma': 'New York', 'formatted_address': '275 7th Ave, New York, NY 10001', 'locality': 'New York', 'postcode': '10001', 'region': 'NY'}, 'name': 'New York City Labor Chorus', 'related_places': {}}, {'fsq_id': '5053583c1b0f4cd93ccef0d6', 'categories': [{'id': 10032, 'name': 'Night Club', 'icon': {'prefix': 'https://ss3.4sqi.net/img/categories_v2/nightlife/nightclub_', 'suffix': '.png'}}], 'chains': [], 'distance': 301, 'geocodes': {'main': {'latitude': 40.746672, 'longitude': -73.996214}, 'roof': {'latitude': 40.746672, 'longitude': -73.996214}}, 'link': '/v3/places/5053583c1b0f4cd93ccef0d6', 'location': {'address': '250 W 26th St', 'census_block': '360610091006000', 'country': 'US', 'dma': 'New York', 'formatted_address': '250 W 26th St, New York, NY 10001', 'locality': 'New York', 'postcode': '10001', 'region': 'NY'}, 'name': 'Paddles NYC', 'related_places': {}}, {'fsq_id': '8135e3b5217e446ddd96556c', 'categories': [{'id': 10000, 'name': 'Arts and Entertainment', 'icon': {'prefix': 'https://ss3.4sqi.net/img/categories_v2/arts_entertainment/default_', 'suffix': '.png'}}], 'chains': [], 'distance': 476, 'geocodes': {'main': {'latitude': 40.747076, 'longitude': -74.001209}, 'roof': {'latitude': 40.747076, 'longitude': -74.001209}}, 'link': '/v3/places/8135e3b5217e446ddd96556c', 'location': {'address': '221 9th Ave', 'census_block': '360610093004000', 'country': 'US', 'dma': 'New York', 'formatted_address': '221 9th Ave, New York, NY 10011', 'locality': 'New York', 'postcode': '10011', 'region': 'NY'}, 'name': 'Sugarland Nightclub', 'related_places': {}}]",8,800.0
Gilt Groupe,$236M,USA,NY,40.74727,-73.9800645,2 Park Ave Fl 4,,10016-5602,"[{'fsq_id': '4b02f734f964a520814b22e3', 'categories': [{'id': 13072, 'name': 'Asian Restaurant', 'icon': {'prefix': 'https://ss3.4sqi.net/img/categories_v2/food/asian_', 'suffix': '.png'}}, {'id': 13289, 'name': 'Korean Restaurant', 'icon': {'prefix': 'https://ss3.4sqi.net/img/categories_v2/food/korean_', 'suffix': '.png'}}, {'id': 13377, 'name': 'Vegan and Vegetarian Restaurant', 'icon': {'prefix': 'https://ss3.4sqi.net/img/categories_v2/food/vegetarian_', 'suffix': '.png'}}], 'chains': [], 'distance': 94, 'geocodes': {'main': {'latitude': 40.747505, 'longitude': -73.981396}, 'roof': {'latitude': 40.747505, 'longitude': -73.981396}}, 'link': '/v3/places/4b02f734f964a520814b22e3', 'location': {'address': '12 Park Ave', 'address_extended': 'between 34th and 35th Streets', 'census_block': '360610074004000', 'country': 'US', 'cross_street': 'at E 34th St.', 'dma': 'New York', 'formatted_address': '12 Park Ave (at E 34th St.), New York, NY 10016', 'locality': 'New York', 'postcode': '10016', 'region': 'NY'}, 'name': 'Franchia', 'related_places': {}, 'timezone': 'America/New_York'}, {'fsq_id': '3fd66200f964a520b1e91ee3', 'categories': [{'id': 13068, 'name': 'American Restaurant', 'icon': {'prefix': 'https://ss3.4sqi.net/img/categories_v2/food/default_', 'suffix': '.png'}}, {'id': 13289, 'name': 'Korean Restaurant', 'icon': {'prefix': 'https://ss3.4sqi.net/img/categories_v2/food/korean_', 'suffix': '.png'}}, {'id': 13377, 'name': 'Vegan and Vegetarian Restaurant', 'icon': {'prefix': 'https://ss3.4sqi.net/img/categories_v2/food/vegetarian_', 'suffix': '.png'}}], 'chains': [], 'distance': 398, 'geocodes': {'main': {'latitude': 40.746606, 'longitude': -73.984724}, 'roof': {'latitude': 40.746606, 'longitude': -73.984724}}, 'link': '/v3/places/3fd66200f964a520b1e91ee3', 'location': {'address': '12 E 32nd St', 'address_extended': 'Frnt 1', 'census_block': '360610074005003', 'country': 'US', 'cross_street': 'btwn Madison & 5th Ave', 'dma': 'New York', 'formatted_address': '12 E 32nd St (btwn Madison & 5th Ave), New York, NY 10016', 'locality': 'New York', 'postcode': '10016', 'region': 'NY'}, 'name': 'Hangawi', 'related_places': {}, 'timezone': 'America/New_York'}, {'fsq_id': '516bf3c5e4b0e8d4443da599', 'categories': [{'id': 13002, 'name': 'Bakery', 'icon': {'prefix': 'https://ss3.4sqi.net/img/categories_v2/food/bakery_', 'suffix': '.png'}}, {'id': 13035, 'name': 'Coffee Shop', 'icon': {'prefix': 'https://ss3.4sqi.net/img/categories_v2/food/coffeeshop_', 'suffix': '.png'}}, {'id': 13065, 'name': 'Restaurant', 'icon': {'prefix': 'https://ss3.4sqi.net/img/categories_v2/food/default_', 'suffix': '.png'}}], 'chains': [], 'distance': 234, 'geocodes': {'main': {'latitude': 40.747616, 'longitude': -73.977295}, 'roof': {'latitude': 40.747616, 'longitude': -73.977295}}, 'link': '/v3/places/516bf3c5e4b0e8d4443da599', 'location': {'address': '162 E 37th St', 'census_block': '360610080003001', 'country': 'US', 'cross_street': 'btwn Lexington Ave & 3rd Ave', 'dma': 'New York', 'formatted_address': '162 E 37th St (btwn Lexington Ave & 3rd Ave), New York, NY 10016', 'locality': 'New York', 'postcode': '10016', 'region': 'NY'}, 'name': 'Perk Kafe', 'related_places': {}, 'timezone': 'America/New_York'}, {'fsq_id': '4caf199db4b0a35dc8033ece', 'categories': [{'id': 13035, 'name': 'Coffee Shop', 'icon': {'prefix': 'https://ss3.4sqi.net/img/categories_v2/food/coffeeshop_', 'suffix': '.png'}}, {'id': 13065, 'name': 'Restaurant', 'icon': {'prefix': 'https://ss3.4sqi.net/img/categories_v2/food/default_', 'suffix': '.png'}}], 'chains': [], 'distance': 244, 'geocodes': {'drop_off': {'latitude': 40.748832, 'longitude': -73.977953}, 'main': {'latitude': 40.748735, 'longitude': -73.977819}, 'roof': {'latitude': 40.748735, 'longitude': -73.977819}}, 'link': '/v3/places/4caf199db4b0a35dc8033ece', 'location': {'address': '311 Lexington Ave', 'census_block': '360610080003000', 'country': 'US', 'cross_street': 'at E 38th St', 'dma': 'New York', 'formatted_address': '311 Lexington Ave (at E 38th St), New York, NY 10016', 'locality': 'New York', 'postcode': '10016', 'region': 'NY'}, 'name': 'Lucid Cafe', 'related_places': {}, 'timezone': 'America/New_York'}, {'fsq_id': '563ca027cd1059cb28185fbd', 'categories': [{'id': 13034, 'name': 'Café', 'icon': {'prefix': 'https://ss3.4sqi.net/img/categories_v2/food/cafe_', 'suffix': '.png'}}, {'id': 13035, 'name': 'Coffee Shop', 'icon': {'prefix': 'https://ss3.4sqi.net/img/categories_v2/food/coffeeshop_', 'suffix': '.png'}}, {'id': 13068, 'name': 'American Restaurant', 'icon': {'prefix': 'https://ss3.4sqi.net/img/categories_v2/food/default_', 'suffix': '.png'}}], 'chains': [], 'distance': 439, 'geocodes': {'main': {'latitude': 40.745317, 'longitude': -73.984499}, 'roof': {'latitude': 40.745317, 'longitude': -73.984499}}, 'link': '/v3/places/563ca027cd1059cb28185fbd', 'location': {'address': '121 Madison Ave', 'address_extended': 'Frnt 5', 'census_block': '360610074002000', 'country': 'US', 'cross_street': 'btwn E 30th & E 31st St', 'dma': 'New York', 'formatted_address': '121 Madison Ave (btwn E 30th & E 31st St), New York, NY 10016', 'locality': 'New York', 'postcode': '10016', 'region': 'NY'}, 'name': 'Blank Slate', 'related_places': {}, 'timezone': 'America/New_York'}, {'fsq_id': '540dc46d498e86f0e5059dd2', 'categories': [{'id': 13263, 'name': 'Japanese Restaurant', 'icon': {'prefix': 'https://ss3.4sqi.net/img/categories_v2/food/japanese_', 'suffix': '.png'}}], 'chains': [], 'distance': 366, 'geocodes': {'drop_off': {'latitude': 40.750616, 'longitude': -73.980883}, 'main': {'latitude': 40.750439, 'longitude': -73.980638}, 'roof': {'latitude': 40.750439, 'longitude': -73.980638}}, 'link': '/v3/places/540dc46d498e86f0e5059dd2', 'location': {'address': '261 Madison Ave', 'census_block': '360610082001001', 'country': 'US', 'cross_street': '', 'dma': 'New York', 'formatted_address': '261 Madison Ave, New York, NY 10016', 'locality': 'New York', 'postcode': '10016', 'region': 'NY'}, 'name': 'Zuma New York', 'related_places': {'children': []}, 'timezone': 'America/New_York'}, {'fsq_id': '560b19b1498ee5e226c151f9', 'categories': [{'id': 13289, 'name': 'Korean Restaurant', 'icon': {'prefix': 'https://ss3.4sqi.net/img/categories_v2/food/korean_', 'suffix': '.png'}}], 'chains': [], 'distance': 424, 'geocodes': {'drop_off': {'latitude': 40.746087, 'longitude': -73.984898}, 'main': {'latitude': 40.746225, 'longitude': -73.98484}, 'roof': {'latitude': 40.746225, 'longitude': -73.98484}}, 'link': '/v3/places/560b19b1498ee5e226c151f9', 'location': {'address': '17 E 31st St', 'address_extended': 'Frnt 1', 'census_block': '360610074005003', 'country': 'US', 'cross_street': 'btwn Madison & 5th Ave', 'dma': 'New York', 'formatted_address': '17 E 31st St (btwn Madison & 5th Ave), New York, NY 10016', 'locality': 'New York', 'postcode': '10016', 'region': 'NY'}, 'name': 'Her Name Is Han', 'related_places': {}, 'timezone': 'America/New_York'}, {'fsq_id': '5406665a498e800a29690993', 'categories': [{'id': 13064, 'name': 'Pizzeria', 'icon': {'prefix': 'https://ss3.4sqi.net/img/categories_v2/food/pizza_', 'suffix': '.png'}}, {'id': 13236, 'name': 'Italian Restaurant', 'icon': {'prefix': 'https://ss3.4sqi.net/img/categories_v2/food/italian_', 'suffix': '.png'}}], 'chains': [], 'distance': 498, 'geocodes': {'main': {'latitude': 40.744558, 'longitude': -73.984644}, 'roof': {'latitude': 40.744558, 'longitude': -73.984644}}, 'link': '/v3/places/5406665a498e800a29690993', 'location': {'address': '29 E 29th St', 'census_block': '360610074002001', 'country': 'US', 'cross_street': 'btwn Madison & Park Ave S', 'dma': 'New York', 'formatted_address': '29 E 29th St (btwn Madison & Park Ave S), New York, NY 10016', 'locality': 'New York', 'postcode': '10016', 'region': 'NY'}, 'name': 'Marta', 'related_places': {'parent': {'fsq_id': '57030fc3498e8a8a53cf5ca9', 'name': 'The Redbury New York'}}, 'timezone': 'America/New_York'}, {'fsq_id': '5d2728fee0332c00233b781b', 'categories': [{'id': 13046, 'name': 'Ice Cream Parlor', 'icon': {'prefix': 'https://ss3.4sqi.net/img/categories_v2/food/icecream_', 'suffix': '.png'}}], 'chains': [], 'distance': 432, 'geocodes': {'drop_off': {'latitude': 40.743285, 'longitude': -73.979893}, 'main': {'latitude': 40.74344, 'longitude': -73.980102}, 'roof': {'latitude': 40.74344, 'longitude': -73.980102}}, 'link': '/v3/places/5d2728fee0332c00233b781b', 'location': {'address': '432 3rd Ave', 'census_block': '360610072004000', 'country': 'US', 'cross_street': '', 'dma': 'New York', 'formatted_address': '432 3rd Ave, New York, NY 10016', 'locality': 'New York', 'postcode': '10016', 'region': 'NY'}, 'name': 'Van Leeuwen Ice Cream', 'related_places': {}, 'timezone': 'America/New_York'}, {'fsq_id': '572759e0498efe726c551007', 'categories': [{'id': 13034, 'name': 'Café', 'icon': {'prefix': 'https://ss3.4sqi.net/img/categories_v2/food/cafe_', 'suffix': '.png'}}, {'id': 13035, 'name': 'Coffee Shop', 'icon': {'prefix': 'https://ss3.4sqi.net/img/categories_v2/food/coffeeshop_', 'suffix': '.png'}}, {'id': 13065, 'name': 'Restaurant', 'icon': {'prefix': 'https://ss3.4sqi.net/img/categories_v2/food/default_', 'suffix': '.png'}}], 'chains': [], 'distance': 461, 'geocodes': {'main': {'latitude': 40.751543, 'longitude': -73.97972}, 'roof': {'latitude': 40.751543, 'longitude': -73.97972}}, 'link': '/v3/places/572759e0498efe726c551007', 'location': {'address': '33 E 40th St', 'census_block': '360610082002008', 'country': 'US', 'cross_street': 'at Madison St', 'dma': 'New York', 'formatted_address': '33 E 40th St (at Madison St), New York, NY 10016', 'locality': 'New York', 'postcode': '10016', 'region': 'NY'}, 'name': 'Taylor St Baristas', 'related_places': {}, 'timezone': 'America/New_York'}]",10,"[{'fsq_id': '52712a6911d25f0e0dfa94cb', 'categories': [{'id': 11026, 'name': 'Daycare', 'icon': {'prefix': 'https://ss3.4sqi.net/img/categories_v2/shops/daycare_', 'suffix': '.png'}}], 'chains': [], 'distance': 164, 'geocodes': {'main': {'latitude': 40.747869, 'longitude': -73.981891}, 'roof': {'latitude': 40.747869, 'longitude': -73.981891}}, 'link': '/v3/places/52712a6911d25f0e0dfa94cb', 'location': {'address': '28 E 35th St', 'census_block': '360610074004000', 'country': 'US', 'cross_street': '', 'dma': 'New York', 'formatted_address': '28 E 35th St, New York, NY 10016', 'locality': 'New York', 'postcode': '10016', 'region': 'NY'}, 'name': 'Maryel International Preschool', 'related_places': {}, 'timezone': 'America/New_York'}]",1,"[{'fsq_id': '4aa01922f964a520483e20e3', 'categories': [{'id': 13035, 'name': 'Coffee Shop', 'icon': {'prefix': 'https://ss3.4sqi.net/img/categories_v2/food/coffeeshop_', 'suffix': '.png'}}], 'chains': [{'id': 'ab4c54c0-d68a-012e-5619-003048cad9da', 'name': 'Starbucks'}], 'distance': 378, 'geocodes': {'main': {'latitude': 40.749103, 'longitude': -73.983801}}, 'link': '/v3/places/4aa01922f964a520483e20e3', 'location': {'address': '373 5th Ave', 'address_extended': 'Frnt 1', 'census_block': '360610082002007', 'country': 'US', 'cross_street': 'at E 35th St', 'dma': 'New York', 'formatted_address': '373 5th Ave (at E 35th St), New York, NY 10016', 'locality': 'New York', 'postcode': '10016', 'region': 'NY'}, 'name': 'Starbucks', 'related_places': {}, 'timezone': 'America/New_York'}, {'fsq_id': '49e3a2b3f964a520a6621fe3', 'categories': [{'id': 13035, 'name': 'Coffee Shop', 'icon': {'prefix': 'https://ss3.4sqi.net/img/categories_v2/food/coffeeshop_', 'suffix': '.png'}}], 'chains': [{'id': 'ab4c54c0-d68a-012e-5619-003048cad9da', 'name': 'Starbucks'}], 'distance': 105, 'geocodes': {'main': {'latitude': 40.7467, 'longitude': -73.981234}, 'roof': {'latitude': 40.7467, 'longitude': -73.981234}}, 'link': '/v3/places/49e3a2b3f964a520a6621fe3', 'location': {'address': '3 Park Ave', 'address_extended': 'Frnt 1', 'census_block': '360610072002000', 'country': 'US', 'cross_street': 'at E 34th St', 'dma': 'New York', 'formatted_address': '3 Park Ave (at E 34th St), New York, NY 10016', 'locality': 'New York', 'postcode': '10016', 'region': 'NY'}, 'name': 'Starbucks', 'related_places': {}, 'timezone': 'America/New_York'}, {'fsq_id': '5902ef325d891b426a85c07a', 'categories': [{'id': 13035, 'name': 'Coffee Shop', 'icon': {'prefix': 'https://ss3.4sqi.net/img/categories_v2/food/coffeeshop_', 'suffix': '.png'}}], 'chains': [{'id': 'ab4c54c0-d68a-012e-5619-003048cad9da', 'name': 'Starbucks'}], 'distance': 281, 'geocodes': {'drop_off': {'latitude': 40.745556, 'longitude': -73.982384}, 'main': {'latitude': 40.745381, 'longitude': -73.982143}, 'roof': {'latitude': 40.745381, 'longitude': -73.982143}}, 'link': '/v3/places/5902ef325d891b426a85c07a', 'location': {'address': '475 Park Ave S', 'census_block': '360610072002002', 'country': 'US', 'cross_street': 'E. 31st St', 'dma': 'New York', 'formatted_address': '475 Park Ave S (E. 31st St), New York, NY 10016', 'locality': 'New York', 'postcode': '10016', 'region': 'NY'}, 'name': 'Starbucks', 'related_places': {}, 'timezone': 'America/New_York'}, {'fsq_id': '4a746847f964a5200ade1fe3', 'categories': [{'id': 13035, 'name': 'Coffee Shop', 'icon': {'prefix': 'https://ss3.4sqi.net/img/categories_v2/food/coffeeshop_', 'suffix': '.png'}}], 'chains': [{'id': 'ab4c54c0-d68a-012e-5619-003048cad9da', 'name': 'Starbucks'}], 'distance': 266, 'geocodes': {'main': {'latitude': 40.748991, 'longitude': -73.982328}, 'roof': {'latitude': 40.748991, 'longitude': -73.982328}}, 'link': '/v3/places/4a746847f964a5200ade1fe3', 'location': {'address': '200 Madison Ave', 'address_extended': 'Frnt 1', 'census_block': '360610082002007', 'country': 'US', 'cross_street': 'at E 36th St', 'dma': 'New York', 'formatted_address': '200 Madison Ave (at E 36th St), New York, NY 10016', 'locality': 'New York', 'postcode': '10016', 'region': 'NY'}, 'name': 'Starbucks', 'related_places': {}, 'timezone': 'America/New_York'}, {'fsq_id': '4a97cf92f964a520c42920e3', 'categories': [{'id': 13035, 'name': 'Coffee Shop', 'icon': {'prefix': 'https://ss3.4sqi.net/img/categories_v2/food/coffeeshop_', 'suffix': '.png'}}], 'chains': [{'id': 'ab4c54c0-d68a-012e-5619-003048cad9da', 'name': 'Starbucks'}], 'distance': 357, 'geocodes': {'main': {'latitude': 40.750587, 'longitude': -73.979158}, 'roof': {'latitude': 40.750587, 'longitude': -73.979158}}, 'link': '/v3/places/4a97cf92f964a520c42920e3', 'location': {'address': '90 Park Ave', 'address_extended': 'Lbby 1', 'census_block': '360610082001000', 'country': 'US', 'cross_street': 'at E 39th St', 'dma': 'New York', 'formatted_address': '90 Park Ave (at E 39th St), New York, NY 10016', 'locality': 'New York', 'postcode': '10016', 'region': 'NY'}, 'name': 'Starbucks', 'related_places': {}, 'timezone': 'America/New_York'}, {'fsq_id': '4c098316ed25952148fa1256', 'categories': [{'id': 13035, 'name': 'Coffee Shop', 'icon': {'prefix': 'https://ss3.4sqi.net/img/categories_v2/food/coffeeshop_', 'suffix': '.png'}}], 'chains': [{'id': 'ab4c54c0-d68a-012e-5619-003048cad9da', 'name': 'Starbucks'}], 'distance': 480, 'geocodes': {'main': {'latitude': 40.748417, 'longitude': -73.985581}, 'roof': {'latitude': 40.748417, 'longitude': -73.985581}}, 'link': '/v3/places/4c098316ed25952148fa1256', 'location': {'address': '350 5th Ave', 'address_extended': 'Lbby 3', 'census_block': '360610076001001', 'country': 'US', 'cross_street': 'W. 33rd St', 'dma': 'New York', 'formatted_address': '350 5th Ave (W. 33rd St), New York, NY 10118', 'locality': 'New York', 'postcode': '10118', 'region': 'NY'}, 'name': 'Starbucks', 'related_places': {'parent': {'fsq_id': '43695300f964a5208c291fe3', 'name': 'Empire State Building'}}, 'timezone': 'America/New_York'}, {'fsq_id': '44afd4e4f964a5202d351fe3', 'categories': [{'id': 13035, 'name': 'Coffee Shop', 'icon': {'prefix': 'https://ss3.4sqi.net/img/categories_v2/food/coffeeshop_', 'suffix': '.png'}}], 'chains': [{'id': 'ab4c54c0-d68a-012e-5619-003048cad9da', 'name': 'Starbucks'}], 'distance': 424, 'geocodes': {'main': {'latitude': 40.750322, 'longitude': -73.976964}, 'roof': {'latitude': 40.750322, 'longitude': -73.976964}}, 'link': '/v3/places/44afd4e4f964a5202d351fe3', 'location': {'address': '360 Lexington Ave', 'address_extended': 'Frnt C', 'census_block': '360610080005001', 'country': 'US', 'cross_street': 'at E 40th St', 'dma': 'New York', 'formatted_address': '360 Lexington Ave (at E 40th St), New York, NY 10017', 'locality': 'New York', 'postcode': '10017', 'region': 'NY'}, 'name': 'Starbucks', 'related_places': {}, 'timezone': 'America/New_York'}, {'fsq_id': '45c76421f964a52066421fe3', 'categories': [{'id': 13035, 'name': 'Coffee Shop', 'icon': {'prefix': 'https://ss3.4sqi.net/img/categories_v2/food/coffeeshop_', 'suffix': '.png'}}], 'chains': [{'id': 'ab4c54c0-d68a-012e-5619-003048cad9da', 'name': 'Starbucks'}], 'distance': 472, 'geocodes': {'main': {'latitude': 40.744205, 'longitude': -73.983713}, 'roof': {'latitude': 40.744205, 'longitude': -73.983713}}, 'link': '/v3/places/45c76421f964a52066421fe3', 'location': {'address': '424 Park Ave S', 'address_extended': 'Frnt 2', 'census_block': '360610074002001', 'country': 'US', 'cross_street': 'at E 29th St', 'dma': 'New York', 'formatted_address': '424 Park Ave S (at E 29th St), New York, NY 10016', 'locality': 'New York', 'postcode': '10016', 'region': 'NY'}, 'name': 'Starbucks', 'related_places': {}, 'timezone': 'America/New_York'}, {'fsq_id': '4a7f0913f964a5208af21fe3', 'categories': [{'id': 13035, 'name': 'Coffee Shop', 'icon': {'prefix': 'https://ss3.4sqi.net/img/categories_v2/food/coffeeshop_', 'suffix': '.png'}}], 'chains': [{'id': 'ab4c54c0-d68a-012e-5619-003048cad9da', 'name': 'Starbucks'}], 'distance': 478, 'geocodes': {'main': {'latitude': 40.743795, 'longitude': -73.976928}, 'roof': {'latitude': 40.743795, 'longitude': -73.976928}}, 'link': '/v3/places/4a7f0913f964a5208af21fe3', 'location': {'address': '585 2nd Ave', 'census_block': '360610070024000', 'country': 'US', 'cross_street': 'E 32nd St', 'dma': 'New York', 'formatted_address': '585 2nd Ave (E 32nd St), New York, NY 10016', 'locality': 'New York', 'postcode': '10016', 'region': 'NY'}, 'name': 'Starbucks', 'related_places': {}, 'timezone': 'America/New_York'}, {'fsq_id': '4bf1a9cb7077952162973e7c', 'categories': [{'id': 13035, 'name': 'Coffee Shop', 'icon': {'prefix': 'https://ss3.4sqi.net/img/categories_v2/food/coffeeshop_', 'suffix': '.png'}}], 'chains': [{'id': 'ab4c54c0-d68a-012e-5619-003048cad9da', 'name': 'Starbucks'}], 'distance': 452, 'geocodes': {'main': {'latitude': 40.74897, 'longitude': -73.975077}, 'roof': {'latitude': 40.74897, 'longitude': -73.975077}}, 'link': '/v3/places/4bf1a9cb7077952162973e7c', 'location': {'address': '605 3rd Ave', 'census_block': '360610088001004', 'country': 'US', 'cross_street': 'at E 41st St', 'dma': 'New York', 'formatted_address': '605 3rd Ave (at E 41st St), New York, NY 10158', 'locality': 'New York', 'postcode': '10158', 'region': 'NY'}, 'name': 'Starbucks', 'related_places': {}, 'timezone': 'America/New_York'}]",10,"[{'fsq_id': '741d73901e18012f487f54d8', 'categories': [{'id': 10032, 'name': 'Night Club', 'icon': {'prefix': 'https://ss3.4sqi.net/img/categories_v2/nightlife/nightclub_', 'suffix': '.png'}}], 'chains': [], 'distance': 468, 'geocodes': {'main': {'latitude': 40.751486, 'longitude': -73.979849}, 'roof': {'latitude': 40.751486, 'longitude': -73.979849}}, 'link': '/v3/places/741d73901e18012f487f54d8', 'location': {'address': '25 E 40th St', 'census_block': '360610082002008', 'country': 'US', 'dma': 'New York', 'formatted_address': '25 E 40th St, New York, NY 10016', 'locality': 'New York', 'postcode': '10016', 'region': 'NY'}, 'name': ""Bentley's Discotheque"", 'related_places': {}}, {'fsq_id': 'a0c772d313454da167b2d94f', 'categories': [{'id': 10032, 'name': 'Night Club', 'icon': {'prefix': 'https://ss3.4sqi.net/img/categories_v2/nightlife/nightclub_', 'suffix': '.png'}}], 'chains': [], 'distance': 487, 'geocodes': {'drop_off': {'latitude': 40.743259, 'longitude': -73.97815}, 'main': {'latitude': 40.743113, 'longitude': -73.978211}, 'roof': {'latitude': 40.743113, 'longitude': -73.978211}}, 'link': '/v3/places/a0c772d313454da167b2d94f', 'location': {'address': '240 E 31st St', 'census_block': '360610070023001', 'country': 'US', 'dma': 'New York', 'formatted_address': '240 E 31st St, New York, NY 10016', 'locality': 'New York', 'postcode': '10016', 'region': 'NY'}, 'name': 'Center For Contemporary Opera', 'related_places': {}}, {'fsq_id': '4e0bcf1f45dd496ab442f888', 'categories': [{'id': 10039, 'name': 'Music Venue', 'icon': {'prefix': 'https://ss3.4sqi.net/img/categories_v2/arts_entertainment/musicvenue_', 'suffix': '.png'}}, {'id': 13003, 'name': 'Bar', 'icon': {'prefix': 'https://ss3.4sqi.net/img/categories_v2/nightlife/pub_', 'suffix': '.png'}}, {'id': 13068, 'name': 'American Restaurant', 'icon': {'prefix': 'https://ss3.4sqi.net/img/categories_v2/food/default_', 'suffix': '.png'}}], 'chains': [], 'distance': 271, 'geocodes': {'main': {'latitude': 40.74585, 'longitude': -73.982729}, 'roof': {'latitude': 40.74585, 'longitude': -73.982729}}, 'link': '/v3/places/4e0bcf1f45dd496ab442f888', 'location': {'address': '44 E 32nd St', 'census_block': '360610074001002', 'country': 'US', 'cross_street': 'btwn Park & Madison Ave', 'dma': 'New York', 'formatted_address': '44 E 32nd St (btwn Park & Madison Ave), New York, NY 10016', 'locality': 'New York', 'postcode': '10016', 'region': 'NY'}, 'name': 'The Cutting Room', 'related_places': {}, 'timezone': 'America/New_York'}, {'fsq_id': '4dc725b01f6ef43b8a4056b4', 'categories': [{'id': 13012, 'name': 'Hookah Bar', 'icon': {'prefix': 'https://ss3.4sqi.net/img/categories_v2/nightlife/hookahbar_', 'suffix': '.png'}}, {'id': 13068, 'name': 'American Restaurant', 'icon': {'prefix': 'https://ss3.4sqi.net/img/categories_v2/food/default_', 'suffix': '.png'}}, {'id': 13302, 'name': 'Mediterranean Restaurant', 'icon': {'prefix': 'https://ss3.4sqi.net/img/categories_v2/food/mediterranean_', 'suffix': '.png'}}], 'chains': [], 'distance': 281, 'geocodes': {'main': {'latitude': 40.745283, 'longitude': -73.977772}, 'roof': {'latitude': 40.745283, 'longitude': -73.977772}}, 'link': '/v3/places/4dc725b01f6ef43b8a4056b4', 'location': {'address': '208 E 34th St', 'census_block': '360610070021000', 'country': 'US', 'cross_street': 'at 3rd Ave', 'dma': 'New York', 'formatted_address': '208 E 34th St (at 3rd Ave), New York, NY 10016', 'locality': 'New York', 'postcode': '10016', 'region': 'NY'}, 'name': 'Babylon Hookah Lounge', 'related_places': {}, 'timezone': 'America/New_York'}]",4,700.0
99designs,$35M,USA,CA,37.7955307,-122.4005983,447 Battery St.,3rd Floor,94111,"[{'fsq_id': '4b391baef964a520605625e3', 'categories': [{'id': 13099, 'name': 'Chinese Restaurant', 'icon': {'prefix': 'https://ss3.4sqi.net/img/categories_v2/food/asian_', 'suffix': '.png'}}, {'id': 13377, 'name': 'Vegan and Vegetarian Restaurant', 'icon': {'prefix': 'https://ss3.4sqi.net/img/categories_v2/food/vegetarian_', 'suffix': '.png'}}], 'chains': [], 'distance': 396, 'geocodes': {'main': {'latitude': 37.795836, 'longitude': -122.405323}, 'roof': {'latitude': 37.795836, 'longitude': -122.405323}}, 'link': '/v3/places/4b391baef964a520605625e3', 'location': {'address': '839 Kearny St', 'census_block': '060750611011005', 'country': 'US', 'cross_street': 'at Washington St.', 'dma': 'San Francisco-Oakland-San Jose', 'formatted_address': '839 Kearny St (at Washington St.), San Francisco, CA 94108', 'locality': 'San Francisco', 'postcode': '94108', 'region': 'CA'}, 'name': 'Enjoy Vegetarian Restaurant', 'related_places': {}, 'timezone': 'America/Los_Angeles'}, {'fsq_id': '4570691ff964a5205c3e1fe3', 'categories': [{'id': 13177, 'name': 'Greek Restaurant', 'icon': {'prefix': 'https://ss3.4sqi.net/img/categories_v2/food/greek_', 'suffix': '.png'}}, {'id': 13302, 'name': 'Mediterranean Restaurant', 'icon': {'prefix': 'https://ss3.4sqi.net/img/categories_v2/food/mediterranean_', 'suffix': '.png'}}], 'chains': [], 'distance': 171, 'geocodes': {'main': {'latitude': 37.797041, 'longitude': -122.399802}, 'roof': {'latitude': 37.797041, 'longitude': -122.399802}}, 'link': '/v3/places/4570691ff964a5205c3e1fe3', 'location': {'address': '200 Jackson St', 'census_block': '060750105001019', 'country': 'US', 'cross_street': 'at Front St', 'dma': 'San Francisco-Oakland-San Jose', 'formatted_address': '200 Jackson St (at Front St), San Francisco, CA 94111', 'locality': 'San Francisco', 'postcode': '94111', 'region': 'CA'}, 'name': 'Kokkari Estiatorio', 'related_places': {}, 'timezone': 'America/Los_Angeles'}, {'fsq_id': '4cd0a38e5b5ca35de6317df0', 'categories': [{'id': 13064, 'name': 'Pizzeria', 'icon': {'prefix': 'https://ss3.4sqi.net/img/categories_v2/food/pizza_', 'suffix': '.png'}}, {'id': 13236, 'name': 'Italian Restaurant', 'icon': {'prefix': 'https://ss3.4sqi.net/img/categories_v2/food/italian_', 'suffix': '.png'}}], 'chains': [], 'distance': 333, 'geocodes': {'main': {'latitude': 37.797485, 'longitude': -122.403413}, 'roof': {'latitude': 37.797485, 'longitude': -122.403413}}, 'link': '/v3/places/4cd0a38e5b5ca35de6317df0', 'location': {'address': '490 Pacific Ave', 'census_block': '060750106002007', 'country': 'US', 'cross_street': 'at Montgomery St', 'dma': 'San Francisco-Oakland-San Jose', 'formatted_address': '490 Pacific Ave (at Montgomery St), San Francisco, CA 94133', 'locality': 'San Francisco', 'postcode': '94133', 'region': 'CA'}, 'name': 'Cotogna', 'related_places': {}, 'timezone': 'America/Los_Angeles'}, {'fsq_id': '563d1b6ecd1073c835e14047', 'categories': [{'id': 13034, 'name': 'Café', 'icon': {'prefix': 'https://ss3.4sqi.net/img/categories_v2/food/cafe_', 'suffix': '.png'}}, {'id': 13377, 'name': 'Vegan and Vegetarian Restaurant', 'icon': {'prefix': 'https://ss3.4sqi.net/img/categories_v2/food/vegetarian_', 'suffix': '.png'}}], 'chains': [], 'distance': 437, 'geocodes': {'drop_off': {'latitude': 37.791606, 'longitude': -122.402537}, 'main': {'latitude': 37.791658, 'longitude': -122.402281}, 'roof': {'latitude': 37.791658, 'longitude': -122.402281}}, 'link': '/v3/places/563d1b6ecd1073c835e14047', 'location': {'address': '250 Montgomery St', 'census_block': '060750117002018', 'country': 'US', 'cross_street': 'Pine St.', 'dma': 'San Francisco-Oakland-San Jose', 'formatted_address': '250 Montgomery St (Pine St.), San Francisco, CA 94104', 'locality': 'San Francisco', 'postcode': '94104', 'region': 'CA'}, 'name': 'The Plant Cafe Organic', 'related_places': {}, 'timezone': 'America/Los_Angeles'}, {'fsq_id': '5d0a985b972c0d0023090738', 'categories': [{'id': 13006, 'name': 'Beer Bar', 'icon': {'prefix': 'https://ss3.4sqi.net/img/categories_v2/nightlife/pub_', 'suffix': '.png'}}, {'id': 13265, 'name': 'Japanese Curry Restaurant', 'icon': {'prefix': 'https://ss3.4sqi.net/img/categories_v2/food/default_', 'suffix': '.png'}}, {'id': 13272, 'name': 'Ramen Restaurant', 'icon': {'prefix': 'https://ss3.4sqi.net/img/categories_v2/food/ramen_', 'suffix': '.png'}}], 'chains': [], 'distance': 359, 'geocodes': {'drop_off': {'latitude': 37.794505, 'longitude': -122.404444}, 'main': {'latitude': 37.794693, 'longitude': -122.404467}, 'roof': {'latitude': 37.794693, 'longitude': -122.404467}}, 'link': '/v3/places/5d0a985b972c0d0023090738', 'location': {'address': '680 Clay St', 'census_block': '060750611012016', 'country': 'US', 'cross_street': '', 'dma': 'San Francisco-Oakland-San Jose', 'formatted_address': '680 Clay St, San Francisco, CA 94111', 'locality': 'San Francisco', 'postcode': '94111', 'region': 'CA'}, 'name': 'Hinodeya Downtown', 'related_places': {}, 'timezone': 'America/Los_Angeles'}, {'fsq_id': '5579b87c498e975f3be98a1e', 'categories': [{'id': 13032, 'name': 'Cafes, Coffee, and Tea Houses', 'icon': {'prefix': 'https://ss3.4sqi.net/img/categories_v2/food/default_', 'suffix': '.png'}}], 'chains': [{'id': 'c1f85da3-9e02-4c1f-9c30-f7f426ae078c', 'name': 'Blue Bottle Coffee'}], 'distance': 469, 'geocodes': {'drop_off': {'latitude': 37.791501, 'longitude': -122.400836}, 'main': {'latitude': 37.791458, 'longitude': -122.40105}, 'roof': {'latitude': 37.791458, 'longitude': -122.40105}}, 'link': '/v3/places/5579b87c498e975f3be98a1e', 'location': {'address': '115 Sansome St', 'census_block': '060750117002018', 'country': 'US', 'cross_street': 'at Bush St', 'dma': 'San Francisco-Oakland-San Jose', 'formatted_address': '115 Sansome St (at Bush St), San Francisco, CA 94104', 'locality': 'San Francisco', 'postcode': '94104', 'region': 'CA'}, 'name': 'Blue Bottle Coffee', 'related_places': {'parent': {'fsq_id': '51818316498ea4513db831d4', 'name': 'Vbg115 Sansome'}}, 'timezone': 'America/Los_Angeles'}, {'fsq_id': '4a0312fff964a52086711fe3', 'categories': [{'id': 13068, 'name': 'American Restaurant', 'icon': {'prefix': 'https://ss3.4sqi.net/img/categories_v2/food/default_', 'suffix': '.png'}}, {'id': 13332, 'name': 'Salad Restaurant', 'icon': {'prefix': 'https://ss3.4sqi.net/img/categories_v2/food/salad_', 'suffix': '.png'}}, {'id': 13377, 'name': 'Vegan and Vegetarian Restaurant', 'icon': {'prefix': 'https://ss3.4sqi.net/img/categories_v2/food/vegetarian_', 'suffix': '.png'}}], 'chains': [], 'distance': 161, 'geocodes': {'main': {'latitude': 37.794537, 'longitude': -122.401805}, 'roof': {'latitude': 37.794537, 'longitude': -122.401805}}, 'link': '/v3/places/4a0312fff964a52086711fe3', 'location': {'address': '475 Sansome St', 'census_block': '060750611012019', 'country': 'US', 'cross_street': 'at Commercial St', 'dma': 'San Francisco-Oakland-San Jose', 'formatted_address': '475 Sansome St (at Commercial St), San Francisco, CA 94111', 'locality': 'San Francisco', 'postcode': '94111', 'region': 'CA'}, 'name': 'Mixt Greens', 'related_places': {}, 'timezone': 'America/Los_Angeles'}, {'fsq_id': '4a3dd25bf964a520b1a21fe3', 'categories': [{'id': 13068, 'name': 'American Restaurant', 'icon': {'prefix': 'https://ss3.4sqi.net/img/categories_v2/food/default_', 'suffix': '.png'}}, {'id': 13148, 'name': 'French Restaurant', 'icon': {'prefix': 'https://ss3.4sqi.net/img/categories_v2/food/french_', 'suffix': '.png'}}, {'id': 13236, 'name': 'Italian Restaurant', 'icon': {'prefix': 'https://ss3.4sqi.net/img/categories_v2/food/italian_', 'suffix': '.png'}}], 'chains': [], 'distance': 313, 'geocodes': {'main': {'latitude': 37.797495, 'longitude': -122.40327}, 'roof': {'latitude': 37.797495, 'longitude': -122.40327}}, 'link': '/v3/places/4a3dd25bf964a520b1a21fe3', 'location': {'address': '470 Pacific Ave', 'census_block': '060750106002007', 'country': 'US', 'cross_street': 'at Montgomery St', 'dma': 'San Francisco-Oakland-San Jose', 'formatted_address': '470 Pacific Ave (at Montgomery St), San Francisco, CA 94133', 'locality': 'San Francisco', 'postcode': '94133', 'region': 'CA'}, 'name': 'Quince', 'related_places': {}, 'timezone': 'America/Los_Angeles'}, {'fsq_id': '5b6c8b982db4a9002c2a57dc', 'categories': [{'id': 13065, 'name': 'Restaurant', 'icon': {'prefix': 'https://ss3.4sqi.net/img/categories_v2/food/default_', 'suffix': '.png'}}], 'chains': [], 'distance': 342, 'geocodes': {'main': {'latitude': 37.792656, 'longitude': -122.402053}, 'roof': {'latitude': 37.792656, 'longitude': -122.402053}}, 'link': '/v3/places/5b6c8b982db4a9002c2a57dc', 'location': {'address': '465 California St', 'census_block': '060750117002009', 'country': 'US', 'cross_street': 'Montgomery and California', 'dma': 'San Francisco-Oakland-San Jose', 'formatted_address': '465 California St (Montgomery and California), San Francisco, CA 94104', 'locality': 'San Francisco', 'postcode': '94104', 'region': 'CA'}, 'name': 'Mendocino Farms', 'related_places': {}, 'timezone': 'America/Los_Angeles'}, {'fsq_id': '555b8b7d498e2877d4286508', 'categories': [{'id': 13032, 'name': 'Cafes, Coffee, and Tea Houses', 'icon': {'prefix': 'https://ss3.4sqi.net/img/categories_v2/food/default_', 'suffix': '.png'}}], 'chains': [{'id': '4e4ae03e-af8e-46a7-96ea-f71871faadb0', 'name': 'Philz Coffee'}], 'distance': 449, 'geocodes': {'main': {'latitude': 37.79179, 'longitude': -122.398847}, 'roof': {'latitude': 37.79179, 'longitude': -122.398847}}, 'link': '/v3/places/555b8b7d498e2877d4286508', 'location': {'address': '1 Front St', 'address_extended': 'Ste 100', 'census_block': '060750117002023', 'country': 'US', 'cross_street': 'at Market St', 'dma': 'San Francisco-Oakland-San Jose', 'formatted_address': '1 Front St (at Market St), San Francisco, CA 94111', 'locality': 'San Francisco', 'postcode': '94111', 'region': 'CA'}, 'name': 'Philz Coffee', 'related_places': {'parent': {'fsq_id': '4b842fd5f964a520522631e3', 'name': 'One Front Street'}}, 'timezone': 'America/Los_Angeles'}]",10,"[{'fsq_id': '558a380a498e13330910aef6', 'categories': [{'id': 12058, 'name': 'Elementary School', 'icon': {'prefix': 'https://ss3.4sqi.net/img/categories_v2/building/school_', 'suffix': '.png'}}], 'chains': [], 'distance': 367, 'geocodes': {'main': {'latitude': 37.795842, 'longitude': -122.404821}, 'roof': {'latitude': 37.795842, 'longitude': -122.404821}}, 'link': '/v3/places/558a380a498e13330910aef6', 'location': {'address': '838 Kearny St', 'census_block': '060750611012004', 'country': 'US', 'cross_street': 'btwn Washington & Jackson St', 'dma': 'San Francisco-Oakland-San Jose', 'formatted_address': '838 Kearny St (btwn Washington & Jackson St), San Francisco, CA 94108', 'locality': 'San Francisco', 'postcode': '94108', 'region': 'CA'}, 'name': ""St Mary's School"", 'related_places': {}, 'timezone': 'America/Los_Angeles'}]",1,"[{'fsq_id': '6167c8968b400716f1d65e0b', 'categories': [{'id': 13035, 'name': 'Coffee Shop', 'icon': {'prefix': 'https://ss3.4sqi.net/img/categories_v2/food/coffeeshop_', 'suffix': '.png'}}], 'chains': [{'id': 'ab4c54c0-d68a-012e-5619-003048cad9da', 'name': 'Starbucks'}], 'distance': 392, 'geocodes': {'main': {'latitude': 37.793812, 'longitude': -122.396743}, 'roof': {'latitude': 37.793812, 'longitude': -122.396743}}, 'link': '/v3/places/6167c8968b400716f1d65e0b', 'location': {'address': '7 Drumm St', 'census_block': '060750117002000', 'country': 'US', 'cross_street': 'California', 'dma': 'San Francisco-Oakland-San Jose', 'formatted_address': '7 Drumm St (California), San Francisco, CA 94111', 'locality': 'San Francisco', 'postcode': '94111', 'region': 'CA'}, 'name': 'Starbucks', 'related_places': {}, 'timezone': 'America/Los_Angeles'}, {'fsq_id': '49d0da91f964a520395b1fe3', 'categories': [{'id': 13035, 'name': 'Coffee Shop', 'icon': {'prefix': 'https://ss3.4sqi.net/img/categories_v2/food/coffeeshop_', 'suffix': '.png'}}], 'chains': [{'id': 'ab4c54c0-d68a-012e-5619-003048cad9da', 'name': 'Starbucks'}], 'distance': 209, 'geocodes': {'main': {'latitude': 37.794601, 'longitude': -122.402669}, 'roof': {'latitude': 37.794601, 'longitude': -122.402669}}, 'link': '/v3/places/49d0da91f964a520395b1fe3', 'location': {'address': '565 Clay St', 'census_block': '060750611012018', 'country': 'US', 'cross_street': 'at Montgomery St', 'dma': 'San Francisco-Oakland-San Jose', 'formatted_address': '565 Clay St (at Montgomery St), San Francisco, CA 94111', 'locality': 'San Francisco', 'postcode': '94111', 'region': 'CA'}, 'name': 'Starbucks', 'related_places': {}, 'timezone': 'America/Los_Angeles'}, {'fsq_id': '4a9809d8f964a5202e2a20e3', 'categories': [{'id': 13035, 'name': 'Coffee Shop', 'icon': {'prefix': 'https://ss3.4sqi.net/img/categories_v2/food/coffeeshop_', 'suffix': '.png'}}], 'chains': [{'id': 'ab4c54c0-d68a-012e-5619-003048cad9da', 'name': 'Starbucks'}], 'distance': 48, 'geocodes': {'main': {'latitude': 37.795166, 'longitude': -122.400408}, 'roof': {'latitude': 37.795166, 'longitude': -122.400408}}, 'link': '/v3/places/4a9809d8f964a5202e2a20e3', 'location': {'address': '425 Battery St', 'address_extended': 'Ste A', 'census_block': '060750611012021', 'country': 'US', 'cross_street': 'at Clay St', 'dma': 'San Francisco-Oakland-San Jose', 'formatted_address': '425 Battery St (at Clay St), San Francisco, CA 94111', 'locality': 'San Francisco', 'postcode': '94111', 'region': 'CA'}, 'name': 'Starbucks', 'related_places': {'parent': {'fsq_id': '5383ee97498e0086eaf1acaa', 'name': 'Club Quarters'}}, 'timezone': 'America/Los_Angeles'}, {'fsq_id': '57792450498e603faaf0da5d', 'categories': [{'id': 13035, 'name': 'Coffee Shop', 'icon': {'prefix': 'https://ss3.4sqi.net/img/categories_v2/food/coffeeshop_', 'suffix': '.png'}}], 'chains': [{'id': 'ab4c54c0-d68a-012e-5619-003048cad9da', 'name': 'Starbucks'}], 'distance': 285, 'geocodes': {'main': {'latitude': 37.797015, 'longitude': -122.398007}, 'roof': {'latitude': 37.797015, 'longitude': -122.398007}}, 'link': '/v3/places/57792450498e603faaf0da5d', 'location': {'address': '99 Jackson St', 'census_block': '060750105002007', 'country': 'US', 'cross_street': '', 'dma': 'San Francisco-Oakland-San Jose', 'formatted_address': '99 Jackson St, San Francisco, CA 94111', 'locality': 'San Francisco', 'postcode': '94111', 'region': 'CA'}, 'name': 'Starbucks', 'related_places': {}, 'timezone': 'America/Los_Angeles'}, {'fsq_id': '4b42e0a7f964a520a3da25e3', 'categories': [{'id': 13035, 'name': 'Coffee Shop', 'icon': {'prefix': 'https://ss3.4sqi.net/img/categories_v2/food/coffeeshop_', 'suffix': '.png'}}], 'chains': [{'id': 'ab4c54c0-d68a-012e-5619-003048cad9da', 'name': 'Starbucks'}], 'distance': 284, 'geocodes': {'main': {'latitude': 37.79309, 'longitude': -122.399784}, 'roof': {'latitude': 37.79309, 'longitude': -122.399784}}, 'link': '/v3/places/4b42e0a7f964a520a3da25e3', 'location': {'address': '295 California St', 'census_block': '060750117002014', 'country': 'US', 'cross_street': 'at Battery St', 'dma': 'San Francisco-Oakland-San Jose', 'formatted_address': '295 California St (at Battery St), San Francisco, CA 94111', 'locality': 'San Francisco', 'postcode': '94111', 'region': 'CA'}, 'name': 'Starbucks', 'related_places': {}, 'timezone': 'America/Los_Angeles'}, {'fsq_id': '4a79c77bf964a520a5e71fe3', 'categories': [{'id': 13035, 'name': 'Coffee Shop', 'icon': {'prefix': 'https://ss3.4sqi.net/img/categories_v2/food/coffeeshop_', 'suffix': '.png'}}], 'chains': [{'id': 'ab4c54c0-d68a-012e-5619-003048cad9da', 'name': 'Starbucks'}], 'distance': 452, 'geocodes': {'main': {'latitude': 37.792975, 'longitude': -122.404294}, 'roof': {'latitude': 37.792975, 'longitude': -122.404294}}, 'link': '/v3/places/4a79c77bf964a520a5e71fe3', 'location': {'address': '580 California St', 'address_extended': 'Ste 150', 'census_block': '060750117002007', 'country': 'US', 'cross_street': 'btwn Kearny & Montgomery St', 'dma': 'San Francisco-Oakland-San Jose', 'formatted_address': '580 California St (btwn Kearny & Montgomery St), San Francisco, CA 94104', 'locality': 'San Francisco', 'postcode': '94104', 'region': 'CA'}, 'name': 'Starbucks', 'related_places': {}, 'timezone': 'America/Los_Angeles'}, {'fsq_id': '694d57c27f6445e9b5252f99', 'categories': [{'id': 13035, 'name': 'Coffee Shop', 'icon': {'prefix': 'https://ss3.4sqi.net/img/categories_v2/food/coffeeshop_', 'suffix': '.png'}}], 'chains': [{'id': 'ab4c54c0-d68a-012e-5619-003048cad9da', 'name': 'Starbucks'}], 'distance': 438, 'geocodes': {'main': {'latitude': 37.792028, 'longitude': -122.398287}, 'roof': {'latitude': 37.792028, 'longitude': -122.398287}}, 'link': '/v3/places/694d57c27f6445e9b5252f99', 'location': {'address': '398 Market St', 'address_extended': 'Ste 103', 'census_block': '060750117002022', 'country': 'US', 'dma': 'San Francisco-Oakland-San Jose', 'formatted_address': '398 Market St, San Francisco, CA 94111', 'locality': 'San Francisco', 'postcode': '94111', 'region': 'CA'}, 'name': 'Starbucks', 'related_places': {}}]",7,"[{'fsq_id': '4f32bd4d19836c91c7f53884', 'categories': [{'id': 10032, 'name': 'Night Club', 'icon': {'prefix': 'https://ss3.4sqi.net/img/categories_v2/nightlife/nightclub_', 'suffix': '.png'}}], 'chains': [], 'distance': 203, 'geocodes': {'main': {'latitude': 37.795788, 'longitude': -122.402954}, 'roof': {'latitude': 37.795788, 'longitude': -122.402954}}, 'link': '/v3/places/4f32bd4d19836c91c7f53884', 'location': {'address': '582 Washington St', 'census_block': '060750611012007', 'country': 'US', 'dma': 'San Francisco-Oakland-San Jose', 'formatted_address': '582 Washington St, San Francisco, CA 94111', 'locality': 'San Francisco', 'postcode': '94111', 'region': 'CA'}, 'name': 'Avantine', 'related_places': {}, 'timezone': 'America/Los_Angeles'}, {'fsq_id': '55ed1abb498e9e55d2e0edfc', 'categories': [{'id': 10032, 'name': 'Night Club', 'icon': {'prefix': 'https://ss3.4sqi.net/img/categories_v2/nightlife/nightclub_', 'suffix': '.png'}}, {'id': 13016, 'name': 'Lounge', 'icon': {'prefix': 'https://ss3.4sqi.net/img/categories_v2/nightlife/default_', 'suffix': '.png'}}], 'chains': [], 'distance': 445, 'geocodes': {'main': {'latitude': 37.797934, 'longitude': -122.404801}, 'roof': {'latitude': 37.797934, 'longitude': -122.404801}}, 'link': '/v3/places/55ed1abb498e9e55d2e0edfc', 'location': {'address': '447 Broadway', 'census_block': '060750106002006', 'country': 'US', 'cross_street': '', 'dma': 'San Francisco-Oakland-San Jose', 'formatted_address': '447 Broadway, San Francisco, CA 94133', 'locality': 'San Francisco', 'postcode': '94133', 'region': 'CA'}, 'name': 'Hue SF', 'related_places': {}, 'timezone': 'America/Los_Angeles'}, {'fsq_id': '3e83434a80444bee9d0965e5', 'categories': [{'id': 10032, 'name': 'Night Club', 'icon': {'prefix': 'https://ss3.4sqi.net/img/categories_v2/nightlife/nightclub_', 'suffix': '.png'}}], 'chains': [], 'distance': 390, 'geocodes': {'drop_off': {'latitude': 37.799046, 'longitude': -122.40116}, 'main': {'latitude': 37.798965, 'longitude': -122.401564}, 'roof': {'latitude': 37.798965, 'longitude': -122.401564}}, 'link': '/v3/places/3e83434a80444bee9d0965e5', 'location': {'address': '865 Battery St', 'census_block': '060750105001013', 'country': 'US', 'dma': 'San Francisco-Oakland-San Jose', 'formatted_address': '865 Battery St, San Francisco, CA 94111', 'locality': 'San Francisco', 'postcode': '94111', 'region': 'CA'}, 'name': 'House Nation', 'related_places': {}}, {'fsq_id': '54dbcaf3eac34edde3d1eae1', 'categories': [{'id': 10032, 'name': 'Night Club', 'icon': {'prefix': 'https://ss3.4sqi.net/img/categories_v2/nightlife/nightclub_', 'suffix': '.png'}}], 'chains': [], 'distance': 455, 'geocodes': {'main': {'latitude': 37.797934, 'longitude': -122.404801}, 'roof': {'latitude': 37.797934, 'longitude': -122.404801}}, 'link': '/v3/places/54dbcaf3eac34edde3d1eae1', 'location': {'address': '447 Broadway', 'census_block': '060750106002006', 'country': 'US', 'dma': 'San Francisco-Oakland-San Jose', 'formatted_address': '447 Broadway, San Francisco, CA 94133', 'locality': 'San Francisco', 'postcode': '94133', 'region': 'CA'}, 'name': 'College Night', 'related_places': {}}, {'fsq_id': '4d8015ad70d18cfae4409694', 'categories': [{'id': 10032, 'name': 'Night Club', 'icon': {'prefix': 'https://ss3.4sqi.net/img/categories_v2/nightlife/nightclub_', 'suffix': '.png'}}, {'id': 13016, 'name': 'Lounge', 'icon': {'prefix': 'https://ss3.4sqi.net/img/categories_v2/nightlife/default_', 'suffix': '.png'}}, {'id': 13026, 'name': 'BBQ Joint', 'icon': {'prefix': 'https://ss3.4sqi.net/img/categories_v2/food/bbqalt_', 'suffix': '.png'}}], 'chains': [], 'distance': 483, 'geocodes': {'main': {'latitude': 37.797885, 'longitude': -122.405014}, 'roof': {'latitude': 37.797885, 'longitude': -122.405014}}, 'link': '/v3/places/4d8015ad70d18cfae4409694', 'location': {'address': '473 Broadway', 'census_block': '060750106002006', 'country': 'US', 'dma': 'San Francisco-Oakland-San Jose', 'formatted_address': '473 Broadway, San Francisco, CA 94133', 'locality': 'San Francisco', 'postcode': '94133', 'region': 'CA'}, 'name': 'Monroe', 'related_places': {}, 'timezone': 'America/Los_Angeles'}, {'fsq_id': '42829c80f964a5201f221fe3', 'categories': [{'id': 13016, 'name': 'Lounge', 'icon': {'prefix': 'https://ss3.4sqi.net/img/categories_v2/nightlife/default_', 'suffix': '.png'}}, {'id': 13068, 'name': 'American Restaurant', 'icon': {'prefix': 'https://ss3.4sqi.net/img/categories_v2/food/default_', 'suffix': '.png'}}, {'id': 13145, 'name': 'Fast Food Restaurant', 'icon': {'prefix': 'https://ss3.4sqi.net/img/categories_v2/food/fastfood_', 'suffix': '.png'}}], 'chains': [], 'distance': 341, 'geocodes': {'main': {'latitude': 37.796492, 'longitude': -122.403999}, 'roof': {'latitude': 37.796492, 'longitude': -122.403999}}, 'link': '/v3/places/42829c80f964a5201f221fe3', 'location': {'address': '530 Jackson St', 'census_block': '060750611012002', 'country': 'US', 'cross_street': 'at Columbus Ave.', 'dma': 'San Francisco-Oakland-San Jose', 'formatted_address': '530 Jackson St (at Columbus Ave.), San Francisco, CA 94133', 'locality': 'San Francisco', 'postcode': '94133', 'region': 'CA'}, 'name': 'Kells Irish Restaurant & Pub', 'related_places': {}, 'timezone': 'America/Los_Angeles'}, {'fsq_id': '4a6bdfaaf964a52027d01fe3', 'categories': [{'id': 10032, 'name': 'Night Club', 'icon': {'prefix': 'https://ss3.4sqi.net/img/categories_v2/nightlife/nightclub_', 'suffix': '.png'}}, {'id': 13022, 'name': 'Sports Bar', 'icon': {'prefix': 'https://ss3.4sqi.net/img/categories_v2/nightlife/sportsbar_', 'suffix': '.png'}}], 'chains': [], 'distance': 400, 'geocodes': {'main': {'latitude': 37.798086, 'longitude': -122.403663}, 'roof': {'latitude': 37.798086, 'longitude': -122.403663}}, 'link': '/v3/places/4a6bdfaaf964a52027d01fe3', 'location': {'address': '391 Broadway', 'census_block': '060750106002007', 'country': 'US', 'cross_street': 'Montgomery', 'dma': 'San Francisco-Oakland-San Jose', 'formatted_address': '391 Broadway (Montgomery), San Francisco, CA 94133', 'locality': 'San Francisco', 'postcode': '94133', 'region': 'CA'}, 'name': 'Centerfolds', 'related_places': {}, 'timezone': 'America/Los_Angeles'}]",7,676.0
Minted,$52.7M,USA,CA,37.797435,-122.403175,747 Front Street,2nd Floor,94111,"[{'fsq_id': '4b391baef964a520605625e3', 'categories': [{'id': 13099, 'name': 'Chinese Restaurant', 'icon': {'prefix': 'https://ss3.4sqi.net/img/categories_v2/food/asian_', 'suffix': '.png'}}, {'id': 13377, 'name': 'Vegan and Vegetarian Restaurant', 'icon': {'prefix': 'https://ss3.4sqi.net/img/categories_v2/food/vegetarian_', 'suffix': '.png'}}], 'chains': [], 'distance': 245, 'geocodes': {'main': {'latitude': 37.795836, 'longitude': -122.405323}, 'roof': {'latitude': 37.795836, 'longitude': -122.405323}},